%time,field.header.seq,field.header.stamp,field.header.frame_id,field.pose.pose.position.x,field.pose.pose.position.y,field.pose.pose.position.z,field.pose.pose.orientation.x,field.pose.pose.orientation.y,field.pose.pose.orientation.z,field.pose.pose.orientation.w,field.pose.covariance0,field.pose.covariance1,field.pose.covariance2,field.pose.covariance3,field.pose.covariance4,field.pose.covariance5,field.pose.covariance6,field.pose.covariance7,field.pose.covariance8,field.pose.covariance9,field.pose.covariance10,field.pose.covariance11,field.pose.covariance12,field.pose.covariance13,field.pose.covariance14,field.pose.covariance15,field.pose.covariance16,field.pose.covariance17,field.pose.covariance18,field.pose.covariance19,field.pose.covariance20,field.pose.covariance21,field.pose.covariance22,field.pose.covariance23,field.pose.covariance24,field.pose.covariance25,field.pose.covariance26,field.pose.covariance27,field.pose.covariance28,field.pose.covariance29,field.pose.covariance30,field.pose.covariance31,field.pose.covariance32,field.pose.covariance33,field.pose.covariance34,field.pose.covariance35
1678098011048881341,0,1678098011048023808,map,20.6725814527,1.53879451185,1.42173285491,-0.745606395648,-0.238097152909,0.220131837561,0.582170821281,1.0,0.0,0.0,0.0,0.0,0.0,0.0,1.0,0.0,0.0,0.0,0.0,0.0,0.0,1.0,0.0,0.0,0.0,0.0,0.0,0.0,1.0,0.0,0.0,0.0,0.0,0.0,0.0,1.0,0.0,0.0,0.0,0.0,0.0,0.0,1.0
1678098011066271517,1,1678098011065560042,map,20.6739711409,1.54000806698,1.42226962277,-0.746274916721,-0.238138030879,0.220351830612,0.58121350286,1.0,0.0,0.0,0.0,0.0,0.0,0.0,1.0,0.0,0.0,0.0,0.0,0.0,0.0,1.0,0.0,0.0,0.0,0.0,0.0,0.0,1.0,0.0,0.0,0.0,0.0,0.0,0.0,1.0,0.0,0.0,0.0,0.0,0.0,0.0,1.0
1678098011083465324,2,1678098011083231726,map,20.677802287,1.54048064806,1.42065880673,-0.746288394369,-0.23876276243,0.22052360068,0.580874671813,1.0,0.0,0.0,0.0,0.0,0.0,0.0,1.0,0.0,0.0,0.0,0.0,0.0,0.0,1.0,0.0,0.0,0.0,0.0,0.0,0.0,1.0,0.0,0.0,0.0,0.0,0.0,0.0,1.0,0.0,0.0,0.0,0.0,0.0,0.0,1.0
1678098011100359197,3,1678098011100234477,map,20.6815091192,1.5427824083,1.41778377806,-0.746634251756,-0.238700179492,0.220564267861,0.580440318243,1.0,0.0,0.0,0.0,0.0,0.0,0.0,1.0,0.0,0.0,0.0,0.0,0.0,0.0,1.0,0.0,0.0,0.0,0.0,0.0,0.0,1.0,0.0,0.0,0.0,0.0,0.0,0.0,1.0,0.0,0.0,0.0,0.0,0.0,0.0,1.0
1678098011117968178,4,1678098011117405092,map,20.6790816547,1.54557465313,1.41516030238,-0.746922367488,-0.239230580435,0.21975489195,0.580158220471,1.0,0.0,0.0,0.0,0.0,0.0,0.0,1.0,0.0,0.0,0.0,0.0,0.0,0.0,1.0,0.0,0.0,0.0,0.0,0.0,0.0,1.0,0.0,0.0,0.0,0.0,0.0,0.0,1.0,0.0,0.0,0.0,0.0,0.0,0.0,1.0
1678098011133467730,5,1678098011133258274,map,20.6835663654,1.54694394784,1.41580914286,-0.747259361578,-0.239131140923,0.219675500739,0.579795187772,1.0,0.0,0.0,0.0,0.0,0.0,0.0,1.0,0.0,0.0,0.0,0.0,0.0,0.0,1.0,0.0,0.0,0.0,0.0,0.0,0.0,1.0,0.0,0.0,0.0,0.0,0.0,0.0,1.0,0.0,0.0,0.0,0.0,0.0,0.0,1.0
1678098011160624193,6,1678098011160437233,map,20.6850478398,1.55135582948,1.4142024635,-0.747764343451,-0.238865043022,0.219957133388,0.579146663147,1.0,0.0,0.0,0.0,0.0,0.0,0.0,1.0,0.0,0.0,0.0,0.0,0.0,0.0,1.0,0.0,0.0,0.0,0.0,0.0,0.0,1.0,0.0,0.0,0.0,0.0,0.0,0.0,1.0,0.0,0.0,0.0,0.0,0.0,0.0,1.0
1678098011191537810,7,1678098011191400054,map,20.6869701365,1.55428220244,1.41565865597,-0.748238116759,-0.237336568604,0.220059227917,0.579124399853,1.0,0.0,0.0,0.0,0.0,0.0,0.0,1.0,0.0,0.0,0.0,0.0,0.0,0.0,1.0,0.0,0.0,0.0,0.0,0.0,0.0,1.0,0.0,0.0,0.0,0.0,0.0,0.0,1.0,0.0,0.0,0.0,0.0,0.0,0.0,1.0
1678098011225083928,8,1678098011224860678,map,20.6917677255,1.55617609067,1.41412404843,-0.748224679103,-0.236194631809,0.219340897048,0.57988058381,1.0,0.0,0.0,0.0,0.0,0.0,0.0,1.0,0.0,0.0,0.0,0.0,0.0,0.0,1.0,0.0,0.0,0.0,0.0,0.0,0.0,1.0,0.0,0.0,0.0,0.0,0.0,0.0,1.0,0.0,0.0,0.0,0.0,0.0,0.0,1.0
1678098011257644744,9,1678098011257496157,map,20.6972002855,1.5596958901,1.41641422132,-0.748960575428,-0.235073070356,0.218854508583,0.579570034346,1.0,0.0,0.0,0.0,0.0,0.0,0.0,1.0,0.0,0.0,0.0,0.0,0.0,0.0,1.0,0.0,0.0,0.0,0.0,0.0,0.0,1.0,0.0,0.0,0.0,0.0,0.0,0.0,1.0,0.0,0.0,0.0,0.0,0.0,0.0,1.0
1678098011291314891,10,1678098011291131964,map,20.6993400174,1.56163376112,1.41604170997,-0.749797671789,-0.232893664123,0.21854697306,0.579483605884,1.0,0.0,0.0,0.0,0.0,0.0,0.0,1.0,0.0,0.0,0.0,0.0,0.0,0.0,1.0,0.0,0.0,0.0,0.0,0.0,0.0,1.0,0.0,0.0,0.0,0.0,0.0,0.0,1.0,0.0,0.0,0.0,0.0,0.0,0.0,1.0
1678098011324016556,11,1678098011323861990,map,20.7025779998,1.56636841392,1.41404745862,-0.750334332088,-0.231313818882,0.218477876171,0.579447764579,1.0,0.0,0.0,0.0,0.0,0.0,0.0,1.0,0.0,0.0,0.0,0.0,0.0,0.0,1.0,0.0,0.0,0.0,0.0,0.0,0.0,1.0,0.0,0.0,0.0,0.0,0.0,0.0,1.0,0.0,0.0,0.0,0.0,0.0,0.0,1.0
1678098011362641618,12,1678098011362495250,map,20.7066174692,1.56659903886,1.41519747896,-0.751248996388,-0.229527585292,0.217133547687,0.579478305455,1.0,0.0,0.0,0.0,0.0,0.0,0.0,1.0,0.0,0.0,0.0,0.0,0.0,0.0,1.0,0.0,0.0,0.0,0.0,0.0,0.0,1.0,0.0,0.0,0.0,0.0,0.0,0.0,1.0,0.0,0.0,0.0,0.0,0.0,0.0,1.0
1678098011390872318,13,1678098011390686185,map,20.7085042332,1.56933187965,1.41188551453,-0.751513550072,-0.228212684438,0.218229723939,0.579242783175,1.0,0.0,0.0,0.0,0.0,0.0,0.0,1.0,0.0,0.0,0.0,0.0,0.0,0.0,1.0,0.0,0.0,0.0,0.0,0.0,0.0,1.0,0.0,0.0,0.0,0.0,0.0,0.0,1.0,0.0,0.0,0.0,0.0,0.0,0.0,1.0
1678098011420425254,14,1678098011420249964,map,20.7149710597,1.57174552358,1.41531990967,-0.749641478722,-0.2291161496,0.219229862392,0.580931755882,1.0,0.0,0.0,0.0,0.0,0.0,0.0,1.0,0.0,0.0,0.0,0.0,0.0,0.0,1.0,0.0,0.0,0.0,0.0,0.0,0.0,1.0,0.0,0.0,0.0,0.0,0.0,0.0,1.0,0.0,0.0,0.0,0.0,0.0,0.0,1.0
1678098011461585754,15,1678098011461438507,map,20.716186942,1.57643107484,1.41699800889,-0.747508212278,-0.23017414519,0.219268058934,0.583243389958,1.0,0.0,0.0,0.0,0.0,0.0,0.0,1.0,0.0,0.0,0.0,0.0,0.0,0.0,1.0,0.0,0.0,0.0,0.0,0.0,0.0,1.0,0.0,0.0,0.0,0.0,0.0,0.0,1.0,0.0,0.0,0.0,0.0,0.0,0.0,1.0
1678098011490600462,16,1678098011490422235,map,20.7184688812,1.57848388523,1.41700262788,-0.747503243348,-0.229377462259,0.221207889419,0.58283098263,1.0,0.0,0.0,0.0,0.0,0.0,0.0,1.0,0.0,0.0,0.0,0.0,0.0,0.0,1.0,0.0,0.0,0.0,0.0,0.0,0.0,1.0,0.0,0.0,0.0,0.0,0.0,0.0,1.0,0.0,0.0,0.0,0.0,0.0,0.0,1.0
1678098011521869979,17,1678098011521693733,map,20.7197459345,1.58141768666,1.41286602897,-0.747237088495,-0.231085152594,0.228433886641,0.579701966248,1.0,0.0,0.0,0.0,0.0,0.0,0.0,1.0,0.0,0.0,0.0,0.0,0.0,0.0,1.0,0.0,0.0,0.0,0.0,0.0,0.0,1.0,0.0,0.0,0.0,0.0,0.0,0.0,1.0,0.0,0.0,0.0,0.0,0.0,0.0,1.0
1678098011560724188,18,1678098011560568492,map,20.72237578,1.58439209089,1.41694669871,-0.747587702378,-0.230872431605,0.232294610386,0.577797365382,1.0,0.0,0.0,0.0,0.0,0.0,0.0,1.0,0.0,0.0,0.0,0.0,0.0,0.0,1.0,0.0,0.0,0.0,0.0,0.0,0.0,1.0,0.0,0.0,0.0,0.0,0.0,0.0,1.0,0.0,0.0,0.0,0.0,0.0,0.0,1.0
1678098011588967545,19,1678098011588760946,map,20.7259807048,1.59025857443,1.41811638303,-0.749512314895,-0.228887423597,0.229935821743,0.577036715226,1.0,0.0,0.0,0.0,0.0,0.0,0.0,1.0,0.0,0.0,0.0,0.0,0.0,0.0,1.0,0.0,0.0,0.0,0.0,0.0,0.0,1.0,0.0,0.0,0.0,0.0,0.0,0.0,1.0,0.0,0.0,0.0,0.0,0.0,0.0,1.0
1678098011623474389,20,1678098011623275493,map,20.7276642086,1.5938995061,1.41247930021,-0.750843064397,-0.227325176346,0.227721431836,0.576802342274,1.0,0.0,0.0,0.0,0.0,0.0,0.0,1.0,0.0,0.0,0.0,0.0,0.0,0.0,1.0,0.0,0.0,0.0,0.0,0.0,0.0,1.0,0.0,0.0,0.0,0.0,0.0,0.0,1.0,0.0,0.0,0.0,0.0,0.0,0.0,1.0
1678098011657034208,21,1678098011656822240,map,20.7294768868,1.595391619,1.41552434277,-0.751335596049,-0.226587989578,0.227885477574,0.576386098932,1.0,0.0,0.0,0.0,0.0,0.0,0.0,1.0,0.0,0.0,0.0,0.0,0.0,0.0,1.0,0.0,0.0,0.0,0.0,0.0,0.0,1.0,0.0,0.0,0.0,0.0,0.0,0.0,1.0,0.0,0.0,0.0,0.0,0.0,0.0,1.0
1678098011691346281,22,1678098011691148525,map,20.7315496043,1.60100913254,1.41134977824,-0.752755987938,-0.223266120496,0.22738744899,0.576025697194,1.0,0.0,0.0,0.0,0.0,0.0,0.0,1.0,0.0,0.0,0.0,0.0,0.0,0.0,1.0,0.0,0.0,0.0,0.0,0.0,0.0,1.0,0.0,0.0,0.0,0.0,0.0,0.0,1.0,0.0,0.0,0.0,0.0,0.0,0.0,1.0
1678098011724711029,23,1678098011724563322,map,20.7325566704,1.60669827363,1.41206403865,-0.75429952215,-0.222907812102,0.229705248327,0.573218881824,1.0,0.0,0.0,0.0,0.0,0.0,0.0,1.0,0.0,0.0,0.0,0.0,0.0,0.0,1.0,0.0,0.0,0.0,0.0,0.0,0.0,1.0,0.0,0.0,0.0,0.0,0.0,0.0,1.0,0.0,0.0,0.0,0.0,0.0,0.0,1.0
1678098011761726174,24,1678098011761488611,map,20.7332119653,1.60645127671,1.41202574961,-0.754271028764,-0.225512414916,0.236874625449,0.569306461334,1.0,0.0,0.0,0.0,0.0,0.0,0.0,1.0,0.0,0.0,0.0,0.0,0.0,0.0,1.0,0.0,0.0,0.0,0.0,0.0,0.0,1.0,0.0,0.0,0.0,0.0,0.0,0.0,1.0,0.0,0.0,0.0,0.0,0.0,0.0,1.0
1678098011795418592,25,1678098011795233180,map,20.7307526649,1.61324858338,1.41133884025,-0.754529555168,-0.227259900575,0.241703145614,0.566231119373,1.0,0.0,0.0,0.0,0.0,0.0,0.0,1.0,0.0,0.0,0.0,0.0,0.0,0.0,1.0,0.0,0.0,0.0,0.0,0.0,0.0,1.0,0.0,0.0,0.0,0.0,0.0,0.0,1.0,0.0,0.0,0.0,0.0,0.0,0.0,1.0
1678098011825935832,26,1678098011825684881,map,20.7350514875,1.62824189661,1.40828800223,-0.754409272725,-0.22742740098,0.242142195162,0.566136514863,1.0,0.0,0.0,0.0,0.0,0.0,0.0,1.0,0.0,0.0,0.0,0.0,0.0,0.0,1.0,0.0,0.0,0.0,0.0,0.0,0.0,1.0,0.0,0.0,0.0,0.0,0.0,0.0,1.0,0.0,0.0,0.0,0.0,0.0,0.0,1.0
1678098011861771605,27,1678098011861625940,map,20.7374963406,1.63307694878,1.4108259703,-0.75338681635,-0.226477534478,0.239069717909,0.569176562343,1.0,0.0,0.0,0.0,0.0,0.0,0.0,1.0,0.0,0.0,0.0,0.0,0.0,0.0,1.0,0.0,0.0,0.0,0.0,0.0,0.0,1.0,0.0,0.0,0.0,0.0,0.0,0.0,1.0,0.0,0.0,0.0,0.0,0.0,0.0,1.0
1678098011891457369,28,1678098011891222581,map,20.7363779882,1.64215667393,1.40760053311,-0.752475724954,-0.225551604856,0.234956990982,0.572452626827,1.0,0.0,0.0,0.0,0.0,0.0,0.0,1.0,0.0,0.0,0.0,0.0,0.0,0.0,1.0,0.0,0.0,0.0,0.0,0.0,0.0,1.0,0.0,0.0,0.0,0.0,0.0,0.0,1.0,0.0,0.0,0.0,0.0,0.0,0.0,1.0
1678098011925910480,29,1678098011925699105,map,20.7393465014,1.6476058703,1.40834437536,-0.753210202931,-0.223882826096,0.230487364066,0.573956813057,1.0,0.0,0.0,0.0,0.0,0.0,0.0,1.0,0.0,0.0,0.0,0.0,0.0,0.0,1.0,0.0,0.0,0.0,0.0,0.0,0.0,1.0,0.0,0.0,0.0,0.0,0.0,0.0,1.0,0.0,0.0,0.0,0.0,0.0,0.0,1.0
1678098011960747265,30,1678098011960539653,map,20.7401250466,1.65844284624,1.40879601684,-0.754876553089,-0.222353758715,0.227468416828,0.57356634039,1.0,0.0,0.0,0.0,0.0,0.0,0.0,1.0,0.0,0.0,0.0,0.0,0.0,0.0,1.0,0.0,0.0,0.0,0.0,0.0,0.0,1.0,0.0,0.0,0.0,0.0,0.0,0.0,1.0,0.0,0.0,0.0,0.0,0.0,0.0,1.0
1678098011987083838,31,1678098011986949395,map,20.7418060738,1.66819245599,1.40700547241,-0.755176942953,-0.222594390331,0.223296631451,0.574715713473,1.0,0.0,0.0,0.0,0.0,0.0,0.0,1.0,0.0,0.0,0.0,0.0,0.0,0.0,1.0,0.0,0.0,0.0,0.0,0.0,0.0,1.0,0.0,0.0,0.0,0.0,0.0,0.0,1.0,0.0,0.0,0.0,0.0,0.0,0.0,1.0
1678098012023966878,32,1678098012023778423,map,20.7430414938,1.67752196579,1.41004092465,-0.754980595015,-0.224309439831,0.220206245887,0.575498751346,1.0,0.0,0.0,0.0,0.0,0.0,0.0,1.0,0.0,0.0,0.0,0.0,0.0,0.0,1.0,0.0,0.0,0.0,0.0,0.0,0.0,1.0,0.0,0.0,0.0,0.0,0.0,0.0,1.0,0.0,0.0,0.0,0.0,0.0,0.0,1.0
1678098012057894288,33,1678098012057658518,map,20.7412715618,1.68910709528,1.40766978889,-0.754989706019,-0.22404909968,0.216160257614,0.577119809891,1.0,0.0,0.0,0.0,0.0,0.0,0.0,1.0,0.0,0.0,0.0,0.0,0.0,0.0,1.0,0.0,0.0,0.0,0.0,0.0,0.0,1.0,0.0,0.0,0.0,0.0,0.0,0.0,1.0,0.0,0.0,0.0,0.0,0.0,0.0,1.0
1678098012086697421,34,1678098012086493831,map,20.7438150269,1.69974417112,1.4129883559,-0.754602407711,-0.2253401384,0.213670823797,0.578050007928,1.0,0.0,0.0,0.0,0.0,0.0,0.0,1.0,0.0,0.0,0.0,0.0,0.0,0.0,1.0,0.0,0.0,0.0,0.0,0.0,0.0,1.0,0.0,0.0,0.0,0.0,0.0,0.0,1.0,0.0,0.0,0.0,0.0,0.0,0.0,1.0
1678098012125291875,35,1678098012125161512,map,20.7443862788,1.71290064571,1.40796465693,-0.754244856012,-0.224843648637,0.212842429108,0.579014775363,1.0,0.0,0.0,0.0,0.0,0.0,0.0,1.0,0.0,0.0,0.0,0.0,0.0,0.0,1.0,0.0,0.0,0.0,0.0,0.0,0.0,1.0,0.0,0.0,0.0,0.0,0.0,0.0,1.0,0.0,0.0,0.0,0.0,0.0,0.0,1.0
1678098012157783948,36,1678098012157515576,map,20.7490644723,1.72036316527,1.41223828733,-0.754234913437,-0.222964092193,0.211823472745,0.580127211456,1.0,0.0,0.0,0.0,0.0,0.0,0.0,1.0,0.0,0.0,0.0,0.0,0.0,0.0,1.0,0.0,0.0,0.0,0.0,0.0,0.0,1.0,0.0,0.0,0.0,0.0,0.0,0.0,1.0,0.0,0.0,0.0,0.0,0.0,0.0,1.0
1678098012195420316,37,1678098012195154324,map,20.7453765226,1.72448889991,1.41278066115,-0.753184865599,-0.221644290068,0.207879447227,0.583414558105,1.0,0.0,0.0,0.0,0.0,0.0,0.0,1.0,0.0,0.0,0.0,0.0,0.0,0.0,1.0,0.0,0.0,0.0,0.0,0.0,0.0,1.0,0.0,0.0,0.0,0.0,0.0,0.0,1.0,0.0,0.0,0.0,0.0,0.0,0.0,1.0
1678098012230298147,38,1678098012230120282,map,20.7464451079,1.73719212894,1.41444235539,-0.752066631104,-0.222157733228,0.203569298279,0.586175147574,1.0,0.0,0.0,0.0,0.0,0.0,0.0,1.0,0.0,0.0,0.0,0.0,0.0,0.0,1.0,0.0,0.0,0.0,0.0,0.0,0.0,1.0,0.0,0.0,0.0,0.0,0.0,0.0,1.0,0.0,0.0,0.0,0.0,0.0,0.0,1.0
1678098012263485663,39,1678098012263297251,map,20.7507878206,1.74875312948,1.41656979221,-0.751926228662,-0.221545354769,0.199504149046,0.58798191025,1.0,0.0,0.0,0.0,0.0,0.0,0.0,1.0,0.0,0.0,0.0,0.0,0.0,0.0,1.0,0.0,0.0,0.0,0.0,0.0,0.0,1.0,0.0,0.0,0.0,0.0,0.0,0.0,1.0,0.0,0.0,0.0,0.0,0.0,0.0,1.0
1678098012290573061,40,1678098012290354480,map,20.7503029665,1.75764734151,1.41855108343,-0.750526747176,-0.223566726015,0.197916466838,0.589539317086,1.0,0.0,0.0,0.0,0.0,0.0,0.0,1.0,0.0,0.0,0.0,0.0,0.0,0.0,1.0,0.0,0.0,0.0,0.0,0.0,0.0,1.0,0.0,0.0,0.0,0.0,0.0,0.0,1.0,0.0,0.0,0.0,0.0,0.0,0.0,1.0
1678098012329261674,41,1678098012329107169,map,20.7529472362,1.76706002339,1.42006065581,-0.749077935185,-0.226757000407,0.194087454364,0.591433516145,1.0,0.0,0.0,0.0,0.0,0.0,0.0,1.0,0.0,0.0,0.0,0.0,0.0,0.0,1.0,0.0,0.0,0.0,0.0,0.0,0.0,1.0,0.0,0.0,0.0,0.0,0.0,0.0,1.0,0.0,0.0,0.0,0.0,0.0,0.0,1.0
1678098012359873508,42,1678098012359693681,map,20.7495811358,1.77337906122,1.42268951809,-0.74848429331,-0.228396014316,0.187764019716,0.59359182399,1.0,0.0,0.0,0.0,0.0,0.0,0.0,1.0,0.0,0.0,0.0,0.0,0.0,0.0,1.0,0.0,0.0,0.0,0.0,0.0,0.0,1.0,0.0,0.0,0.0,0.0,0.0,0.0,1.0,0.0,0.0,0.0,0.0,0.0,0.0,1.0
1678098012398114564,43,1678098012397908084,map,20.7489629879,1.78245096208,1.42143082862,-0.746737690397,-0.231349834284,0.184304205775,0.595728165905,1.0,0.0,0.0,0.0,0.0,0.0,0.0,1.0,0.0,0.0,0.0,0.0,0.0,0.0,1.0,0.0,0.0,0.0,0.0,0.0,0.0,1.0,0.0,0.0,0.0,0.0,0.0,0.0,1.0,0.0,0.0,0.0,0.0,0.0,0.0,1.0
1678098012431080968,44,1678098012430968793,map,20.7531557952,1.78687250929,1.42412763948,-0.744720526271,-0.234544400722,0.180666878242,0.598113481838,1.0,0.0,0.0,0.0,0.0,0.0,0.0,1.0,0.0,0.0,0.0,0.0,0.0,0.0,1.0,0.0,0.0,0.0,0.0,0.0,0.0,1.0,0.0,0.0,0.0,0.0,0.0,0.0,1.0,0.0,0.0,0.0,0.0,0.0,0.0,1.0
1678098012462681808,45,1678098012462290457,map,20.7538813592,1.79791254733,1.42331314823,-0.744523282608,-0.236696858442,0.17979858083,0.597772656249,1.0,0.0,0.0,0.0,0.0,0.0,0.0,1.0,0.0,0.0,0.0,0.0,0.0,0.0,1.0,0.0,0.0,0.0,0.0,0.0,0.0,1.0,0.0,0.0,0.0,0.0,0.0,0.0,1.0,0.0,0.0,0.0,0.0,0.0,0.0,1.0
1678098012493597279,46,1678098012493451315,map,20.7541799216,1.80538713581,1.42238893694,-0.745145952734,-0.24046004888,0.183454563415,0.59437436213,1.0,0.0,0.0,0.0,0.0,0.0,0.0,1.0,0.0,0.0,0.0,0.0,0.0,0.0,1.0,0.0,0.0,0.0,0.0,0.0,0.0,1.0,0.0,0.0,0.0,0.0,0.0,0.0,1.0,0.0,0.0,0.0,0.0,0.0,0.0,1.0
1678098012527693944,47,1678098012527544956,map,20.7509845105,1.81562098952,1.42176383142,-0.745393632925,-0.24551343814,0.183571250506,0.591956983115,1.0,0.0,0.0,0.0,0.0,0.0,0.0,1.0,0.0,0.0,0.0,0.0,0.0,0.0,1.0,0.0,0.0,0.0,0.0,0.0,0.0,1.0,0.0,0.0,0.0,0.0,0.0,0.0,1.0,0.0,0.0,0.0,0.0,0.0,0.0,1.0
1678098012561471419,48,1678098012561297083,map,20.7506049166,1.82489505246,1.41754279949,-0.743269125044,-0.247587898139,0.185251498367,0.593239515747,1.0,0.0,0.0,0.0,0.0,0.0,0.0,1.0,0.0,0.0,0.0,0.0,0.0,0.0,1.0,0.0,0.0,0.0,0.0,0.0,0.0,1.0,0.0,0.0,0.0,0.0,0.0,0.0,1.0,0.0,0.0,0.0,0.0,0.0,0.0,1.0
1678098012594735490,49,1678098012594592124,map,20.7542767979,1.83395447499,1.41729866478,-0.741416688699,-0.249972523206,0.186929150686,0.594030732972,1.0,0.0,0.0,0.0,0.0,0.0,0.0,1.0,0.0,0.0,0.0,0.0,0.0,0.0,1.0,0.0,0.0,0.0,0.0,0.0,0.0,1.0,0.0,0.0,0.0,0.0,0.0,0.0,1.0,0.0,0.0,0.0,0.0,0.0,0.0,1.0
1678098012628552687,50,1678098012628427648,map,20.7516801786,1.83917143918,1.41655782181,-0.740207079761,-0.253541320171,0.187642191416,0.593801870054,1.0,0.0,0.0,0.0,0.0,0.0,0.0,1.0,0.0,0.0,0.0,0.0,0.0,0.0,1.0,0.0,0.0,0.0,0.0,0.0,0.0,1.0,0.0,0.0,0.0,0.0,0.0,0.0,1.0,0.0,0.0,0.0,0.0,0.0,0.0,1.0
1678098012660522292,51,1678098012660230238,map,20.7558604958,1.85181843914,1.41628283614,-0.738866736786,-0.259777069657,0.191071296356,0.591678605625,1.0,0.0,0.0,0.0,0.0,0.0,0.0,1.0,0.0,0.0,0.0,0.0,0.0,0.0,1.0,0.0,0.0,0.0,0.0,0.0,0.0,1.0,0.0,0.0,0.0,0.0,0.0,0.0,1.0,0.0,0.0,0.0,0.0,0.0,0.0,1.0
1678098012697174736,52,1678098012697033494,map,20.7545028238,1.86287748618,1.41407983285,-0.739242564305,-0.265088243323,0.192880437894,0.588256626345,1.0,0.0,0.0,0.0,0.0,0.0,0.0,1.0,0.0,0.0,0.0,0.0,0.0,0.0,1.0,0.0,0.0,0.0,0.0,0.0,0.0,1.0,0.0,0.0,0.0,0.0,0.0,0.0,1.0,0.0,0.0,0.0,0.0,0.0,0.0,1.0
1678098012729120123,53,1678098012728899318,map,20.7587429977,1.87515012882,1.41328916318,-0.741061557356,-0.268308726644,0.194994278233,0.583794047596,1.0,0.0,0.0,0.0,0.0,0.0,0.0,1.0,0.0,0.0,0.0,0.0,0.0,0.0,1.0,0.0,0.0,0.0,0.0,0.0,0.0,1.0,0.0,0.0,0.0,0.0,0.0,0.0,1.0,0.0,0.0,0.0,0.0,0.0,0.0,1.0
1678098012760700644,54,1678098012760536922,map,20.7524380548,1.88498403245,1.40567444497,-0.740121934397,-0.27290578248,0.200830140343,0.580869348913,1.0,0.0,0.0,0.0,0.0,0.0,0.0,1.0,0.0,0.0,0.0,0.0,0.0,0.0,1.0,0.0,0.0,0.0,0.0,0.0,0.0,1.0,0.0,0.0,0.0,0.0,0.0,0.0,1.0,0.0,0.0,0.0,0.0,0.0,0.0,1.0
1678098012797603077,55,1678098012797407040,map,20.7546811051,1.89565614212,1.40465544832,-0.738280654051,-0.278348609814,0.206112571788,0.578775732779,1.0,0.0,0.0,0.0,0.0,0.0,0.0,1.0,0.0,0.0,0.0,0.0,0.0,0.0,1.0,0.0,0.0,0.0,0.0,0.0,0.0,1.0,0.0,0.0,0.0,0.0,0.0,0.0,1.0,0.0,0.0,0.0,0.0,0.0,0.0,1.0
1678098012830007883,56,1678098012829849078,map,20.7573567742,1.9024160717,1.40605441302,-0.737430901866,-0.281715880345,0.211736397324,0.576193989833,1.0,0.0,0.0,0.0,0.0,0.0,0.0,1.0,0.0,0.0,0.0,0.0,0.0,0.0,1.0,0.0,0.0,0.0,0.0,0.0,0.0,1.0,0.0,0.0,0.0,0.0,0.0,0.0,1.0,0.0,0.0,0.0,0.0,0.0,0.0,1.0
1678098012861076876,57,1678098012860911247,map,20.7529951669,1.9189351776,1.40144999888,-0.736678485923,-0.282953815077,0.222497434765,0.572483044069,1.0,0.0,0.0,0.0,0.0,0.0,0.0,1.0,0.0,0.0,0.0,0.0,0.0,0.0,1.0,0.0,0.0,0.0,0.0,0.0,0.0,1.0,0.0,0.0,0.0,0.0,0.0,0.0,1.0,0.0,0.0,0.0,0.0,0.0,0.0,1.0
1678098012894970054,58,1678098012894833716,map,20.7526834283,1.93093455858,1.39698083677,-0.73467014646,-0.284829120942,0.232058050199,0.570334352026,1.0,0.0,0.0,0.0,0.0,0.0,0.0,1.0,0.0,0.0,0.0,0.0,0.0,0.0,1.0,0.0,0.0,0.0,0.0,0.0,0.0,1.0,0.0,0.0,0.0,0.0,0.0,0.0,1.0,0.0,0.0,0.0,0.0,0.0,0.0,1.0
1678098012923222223,59,1678098012923002050,map,20.750429804,1.94206417467,1.39437692777,-0.731721689824,-0.289349399436,0.241198772558,0.568052387608,1.0,0.0,0.0,0.0,0.0,0.0,0.0,1.0,0.0,0.0,0.0,0.0,0.0,0.0,1.0,0.0,0.0,0.0,0.0,0.0,0.0,1.0,0.0,0.0,0.0,0.0,0.0,0.0,1.0,0.0,0.0,0.0,0.0,0.0,0.0,1.0
1678098012962396282,60,1678098012962243940,map,20.7464667259,1.94734230314,1.39395523618,-0.72935021993,-0.294542788377,0.250286589037,0.5644904319,1.0,0.0,0.0,0.0,0.0,0.0,0.0,1.0,0.0,0.0,0.0,0.0,0.0,0.0,1.0,0.0,0.0,0.0,0.0,0.0,0.0,1.0,0.0,0.0,0.0,0.0,0.0,0.0,1.0,0.0,0.0,0.0,0.0,0.0,0.0,1.0
1678098012999024243,61,1678098012998880407,map,20.7515280137,1.96411729198,1.39408606957,-0.727401124884,-0.29965317349,0.261917753816,0.559012245105,1.0,0.0,0.0,0.0,0.0,0.0,0.0,1.0,0.0,0.0,0.0,0.0,0.0,0.0,1.0,0.0,0.0,0.0,0.0,0.0,0.0,1.0,0.0,0.0,0.0,0.0,0.0,0.0,1.0,0.0,0.0,0.0,0.0,0.0,0.0,1.0
1678098013035081191,62,1678098013034919493,map,20.7604999145,1.97147707587,1.4004292993,-0.724766918128,-0.305169742117,0.270122426469,0.555534196284,1.0,0.0,0.0,0.0,0.0,0.0,0.0,1.0,0.0,0.0,0.0,0.0,0.0,0.0,1.0,0.0,0.0,0.0,0.0,0.0,0.0,1.0,0.0,0.0,0.0,0.0,0.0,0.0,1.0,0.0,0.0,0.0,0.0,0.0,0.0,1.0
1678098013065227436,63,1678098013065094184,map,20.7628981045,1.98539041589,1.39714416766,-0.72116550936,-0.312163017982,0.277252687041,0.552815981131,1.0,0.0,0.0,0.0,0.0,0.0,0.0,1.0,0.0,0.0,0.0,0.0,0.0,0.0,1.0,0.0,0.0,0.0,0.0,0.0,0.0,1.0,0.0,0.0,0.0,0.0,0.0,0.0,1.0,0.0,0.0,0.0,0.0,0.0,0.0,1.0
1678098013097740445,64,1678098013097605075,map,20.7635169324,1.9899568334,1.39634231461,-0.717914792215,-0.318127631883,0.283971683076,0.55023019301,1.0,0.0,0.0,0.0,0.0,0.0,0.0,1.0,0.0,0.0,0.0,0.0,0.0,0.0,1.0,0.0,0.0,0.0,0.0,0.0,0.0,1.0,0.0,0.0,0.0,0.0,0.0,0.0,1.0,0.0,0.0,0.0,0.0,0.0,0.0,1.0
1678098013131916432,65,1678098013131770057,map,20.7689540733,2.00075166245,1.40270760648,-0.714993193571,-0.32333859583,0.291311940063,0.54715106291,1.0,0.0,0.0,0.0,0.0,0.0,0.0,1.0,0.0,0.0,0.0,0.0,0.0,0.0,1.0,0.0,0.0,0.0,0.0,0.0,0.0,1.0,0.0,0.0,0.0,0.0,0.0,0.0,1.0,0.0,0.0,0.0,0.0,0.0,0.0,1.0
1678098013166109981,66,1678098013165977324,map,20.7742914661,2.00990494477,1.40954893179,-0.710961269039,-0.330777264633,0.297409452039,0.544672447638,1.0,0.0,0.0,0.0,0.0,0.0,0.0,1.0,0.0,0.0,0.0,0.0,0.0,0.0,1.0,0.0,0.0,0.0,0.0,0.0,0.0,1.0,0.0,0.0,0.0,0.0,0.0,0.0,1.0,0.0,0.0,0.0,0.0,0.0,0.0,1.0
1678098013201313441,67,1678098013201185257,map,20.7735354074,2.01803681854,1.40660913581,-0.708300548323,-0.335874110803,0.301742144131,0.542632983663,1.0,0.0,0.0,0.0,0.0,0.0,0.0,1.0,0.0,0.0,0.0,0.0,0.0,0.0,1.0,0.0,0.0,0.0,0.0,0.0,0.0,1.0,0.0,0.0,0.0,0.0,0.0,0.0,1.0,0.0,0.0,0.0,0.0,0.0,0.0,1.0
1678098013235639265,68,1678098013235415892,map,20.7836652762,2.0239544829,1.41178481392,-0.705881237087,-0.341073710286,0.305433235894,0.540472874295,1.0,0.0,0.0,0.0,0.0,0.0,0.0,1.0,0.0,0.0,0.0,0.0,0.0,0.0,1.0,0.0,0.0,0.0,0.0,0.0,0.0,1.0,0.0,0.0,0.0,0.0,0.0,0.0,1.0,0.0,0.0,0.0,0.0,0.0,0.0,1.0
1678098013262972889,69,1678098013262839077,map,20.7816236221,2.02886616255,1.41325600991,-0.70324490374,-0.344919814132,0.310001441576,0.538865513592,1.0,0.0,0.0,0.0,0.0,0.0,0.0,1.0,0.0,0.0,0.0,0.0,0.0,0.0,1.0,0.0,0.0,0.0,0.0,0.0,0.0,1.0,0.0,0.0,0.0,0.0,0.0,0.0,1.0,0.0,0.0,0.0,0.0,0.0,0.0,1.0
1678098013298491231,70,1678098013298346525,map,20.7893082648,2.03468341591,1.41644621121,-0.700336010747,-0.34987348661,0.312567708131,0.537977262782,1.0,0.0,0.0,0.0,0.0,0.0,0.0,1.0,0.0,0.0,0.0,0.0,0.0,0.0,1.0,0.0,0.0,0.0,0.0,0.0,0.0,1.0,0.0,0.0,0.0,0.0,0.0,0.0,1.0,0.0,0.0,0.0,0.0,0.0,0.0,1.0
1678098013335194542,71,1678098013335014711,map,20.7920219205,2.03998639749,1.41581812542,-0.698360280396,-0.353457858779,0.314309391232,0.53718719845,1.0,0.0,0.0,0.0,0.0,0.0,0.0,1.0,0.0,0.0,0.0,0.0,0.0,0.0,1.0,0.0,0.0,0.0,0.0,0.0,0.0,1.0,0.0,0.0,0.0,0.0,0.0,0.0,1.0,0.0,0.0,0.0,0.0,0.0,0.0,1.0
1678098013364139259,72,1678098013363979546,map,20.7993221402,2.04239997802,1.41862135395,-0.696061375672,-0.356722642226,0.318021007573,0.535826627369,1.0,0.0,0.0,0.0,0.0,0.0,0.0,1.0,0.0,0.0,0.0,0.0,0.0,0.0,1.0,0.0,0.0,0.0,0.0,0.0,0.0,1.0,0.0,0.0,0.0,0.0,0.0,0.0,1.0,0.0,0.0,0.0,0.0,0.0,0.0,1.0
1678098013402205973,73,1678098013402092400,map,20.8048606376,2.05043277696,1.41715732209,-0.694407217365,-0.35847068322,0.321940713586,0.534463798186,1.0,0.0,0.0,0.0,0.0,0.0,0.0,1.0,0.0,0.0,0.0,0.0,0.0,0.0,1.0,0.0,0.0,0.0,0.0,0.0,0.0,1.0,0.0,0.0,0.0,0.0,0.0,0.0,1.0,0.0,0.0,0.0,0.0,0.0,0.0,1.0
1678098013429281109,74,1678098013429119931,map,20.8070545295,2.05091828384,1.41872842877,-0.693101686611,-0.360520081909,0.324888457473,0.532994219269,1.0,0.0,0.0,0.0,0.0,0.0,0.0,1.0,0.0,0.0,0.0,0.0,0.0,0.0,1.0,0.0,0.0,0.0,0.0,0.0,0.0,1.0,0.0,0.0,0.0,0.0,0.0,0.0,1.0,0.0,0.0,0.0,0.0,0.0,0.0,1.0
1678098013462794131,75,1678098013462654858,map,20.8099001617,2.05900625874,1.42151594932,-0.691993956621,-0.362576619736,0.328103899001,0.531065343668,1.0,0.0,0.0,0.0,0.0,0.0,0.0,1.0,0.0,0.0,0.0,0.0,0.0,0.0,1.0,0.0,0.0,0.0,0.0,0.0,0.0,1.0,0.0,0.0,0.0,0.0,0.0,0.0,1.0,0.0,0.0,0.0,0.0,0.0,0.0,1.0
1678098013494140162,76,1678098013493969312,map,20.8110102441,2.05877801082,1.41979964541,-0.691149854591,-0.364134211369,0.329256478024,0.530385098674,1.0,0.0,0.0,0.0,0.0,0.0,0.0,1.0,0.0,0.0,0.0,0.0,0.0,0.0,1.0,0.0,0.0,0.0,0.0,0.0,0.0,1.0,0.0,0.0,0.0,0.0,0.0,0.0,1.0,0.0,0.0,0.0,0.0,0.0,0.0,1.0
1678098013529514970,77,1678098013529299192,map,20.8150008223,2.05991185141,1.41947269354,-0.689631448768,-0.366437138827,0.329456288421,0.53065131263,1.0,0.0,0.0,0.0,0.0,0.0,0.0,1.0,0.0,0.0,0.0,0.0,0.0,0.0,1.0,0.0,0.0,0.0,0.0,0.0,0.0,1.0,0.0,0.0,0.0,0.0,0.0,0.0,1.0,0.0,0.0,0.0,0.0,0.0,0.0,1.0
1678098013569156097,78,1678098013569043181,map,20.8113798457,2.06479255041,1.41558794662,-0.688258565627,-0.368982979058,0.331432299618,0.529437761013,1.0,0.0,0.0,0.0,0.0,0.0,0.0,1.0,0.0,0.0,0.0,0.0,0.0,0.0,1.0,0.0,0.0,0.0,0.0,0.0,0.0,1.0,0.0,0.0,0.0,0.0,0.0,0.0,1.0,0.0,0.0,0.0,0.0,0.0,0.0,1.0
1678098013591888615,79,1678098013591724901,map,20.8174154356,2.06662537604,1.41835656028,-0.687891637965,-0.371655573182,0.332105633838,0.527620223974,1.0,0.0,0.0,0.0,0.0,0.0,0.0,1.0,0.0,0.0,0.0,0.0,0.0,0.0,1.0,0.0,0.0,0.0,0.0,0.0,0.0,1.0,0.0,0.0,0.0,0.0,0.0,0.0,1.0,0.0,0.0,0.0,0.0,0.0,0.0,1.0
1678098013627713786,80,1678098013627434871,map,20.8191838104,2.06843332109,1.41837010309,-0.686111124762,-0.374573971538,0.333193696759,0.527188685932,1.0,0.0,0.0,0.0,0.0,0.0,0.0,1.0,0.0,0.0,0.0,0.0,0.0,0.0,1.0,0.0,0.0,0.0,0.0,0.0,0.0,1.0,0.0,0.0,0.0,0.0,0.0,0.0,1.0,0.0,0.0,0.0,0.0,0.0,0.0,1.0
1678098013663339865,81,1678098013663190269,map,20.8214081504,2.0675976803,1.41770244624,-0.68485028502,-0.375677115632,0.334847741862,0.526995060249,1.0,0.0,0.0,0.0,0.0,0.0,0.0,1.0,0.0,0.0,0.0,0.0,0.0,0.0,1.0,0.0,0.0,0.0,0.0,0.0,0.0,1.0,0.0,0.0,0.0,0.0,0.0,0.0,1.0,0.0,0.0,0.0,0.0,0.0,0.0,1.0
1678098013696978083,82,1678098013696780348,map,20.8189185068,2.06964449028,1.41778593726,-0.684225577665,-0.377252288326,0.336037570338,0.525922847166,1.0,0.0,0.0,0.0,0.0,0.0,0.0,1.0,0.0,0.0,0.0,0.0,0.0,0.0,1.0,0.0,0.0,0.0,0.0,0.0,0.0,1.0,0.0,0.0,0.0,0.0,0.0,0.0,1.0,0.0,0.0,0.0,0.0,0.0,0.0,1.0
1678098013729195780,83,1678098013728965397,map,20.8233427303,2.06968395293,1.41667570831,-0.684618274332,-0.378349906883,0.336317248853,0.524442480286,1.0,0.0,0.0,0.0,0.0,0.0,0.0,1.0,0.0,0.0,0.0,0.0,0.0,0.0,1.0,0.0,0.0,0.0,0.0,0.0,0.0,1.0,0.0,0.0,0.0,0.0,0.0,0.0,1.0,0.0,0.0,0.0,0.0,0.0,0.0,1.0
1678098013763215631,84,1678098013763075975,map,20.8215804916,2.07024239891,1.4170469242,-0.684596258307,-0.380185680438,0.33708005232,0.522650812481,1.0,0.0,0.0,0.0,0.0,0.0,0.0,1.0,0.0,0.0,0.0,0.0,0.0,0.0,1.0,0.0,0.0,0.0,0.0,0.0,0.0,1.0,0.0,0.0,0.0,0.0,0.0,0.0,1.0,0.0,0.0,0.0,0.0,0.0,0.0,1.0
1678098013795908130,85,1678098013795745223,map,20.8260810456,2.07501885086,1.41578426949,-0.684947585378,-0.38192763406,0.337439555019,0.520684732755,1.0,0.0,0.0,0.0,0.0,0.0,0.0,1.0,0.0,0.0,0.0,0.0,0.0,0.0,1.0,0.0,0.0,0.0,0.0,0.0,0.0,1.0,0.0,0.0,0.0,0.0,0.0,0.0,1.0,0.0,0.0,0.0,0.0,0.0,0.0,1.0
1678098013827149929,86,1678098013827008079,map,20.8221485258,2.07187450294,1.41239652697,-0.685085997738,-0.384648264698,0.335258508615,0.519908304402,1.0,0.0,0.0,0.0,0.0,0.0,0.0,1.0,0.0,0.0,0.0,0.0,0.0,0.0,1.0,0.0,0.0,0.0,0.0,0.0,0.0,1.0,0.0,0.0,0.0,0.0,0.0,0.0,1.0,0.0,0.0,0.0,0.0,0.0,0.0,1.0
1678098013862971214,87,1678098013862823997,map,20.8228346915,2.07154884703,1.41305365657,-0.685816391457,-0.386962571044,0.333259119101,0.518511589713,1.0,0.0,0.0,0.0,0.0,0.0,0.0,1.0,0.0,0.0,0.0,0.0,0.0,0.0,1.0,0.0,0.0,0.0,0.0,0.0,0.0,1.0,0.0,0.0,0.0,0.0,0.0,0.0,1.0,0.0,0.0,0.0,0.0,0.0,0.0,1.0
1678098013900026078,88,1678098013899828411,map,20.8224596399,2.07462449519,1.40960691579,-0.686159680039,-0.39126542388,0.332181740085,0.515510983493,1.0,0.0,0.0,0.0,0.0,0.0,0.0,1.0,0.0,0.0,0.0,0.0,0.0,0.0,1.0,0.0,0.0,0.0,0.0,0.0,0.0,1.0,0.0,0.0,0.0,0.0,0.0,0.0,1.0,0.0,0.0,0.0,0.0,0.0,0.0,1.0
1678098013931916976,89,1678098013931704694,map,20.8232710214,2.07370636828,1.40915116163,-0.687049331493,-0.396684779133,0.331076489533,0.510874533633,1.0,0.0,0.0,0.0,0.0,0.0,0.0,1.0,0.0,0.0,0.0,0.0,0.0,0.0,1.0,0.0,0.0,0.0,0.0,0.0,0.0,1.0,0.0,0.0,0.0,0.0,0.0,0.0,1.0,0.0,0.0,0.0,0.0,0.0,0.0,1.0
1678098013962528842,90,1678098013962341841,map,20.819970836,2.07322285858,1.4089038009,-0.688079314223,-0.401370643011,0.32819889933,0.50767503564,1.0,0.0,0.0,0.0,0.0,0.0,0.0,1.0,0.0,0.0,0.0,0.0,0.0,0.0,1.0,0.0,0.0,0.0,0.0,0.0,0.0,1.0,0.0,0.0,0.0,0.0,0.0,0.0,1.0,0.0,0.0,0.0,0.0,0.0,0.0,1.0
1678098013998040412,91,1678098013997869988,map,20.8191489454,2.07124827056,1.40919616797,-0.688615467912,-0.406327387949,0.326005920816,0.504407551196,1.0,0.0,0.0,0.0,0.0,0.0,0.0,1.0,0.0,0.0,0.0,0.0,0.0,0.0,1.0,0.0,0.0,0.0,0.0,0.0,0.0,1.0,0.0,0.0,0.0,0.0,0.0,0.0,1.0,0.0,0.0,0.0,0.0,0.0,0.0,1.0
1678098014030915326,92,1678098014030762809,map,20.823037098,2.07434923794,1.40155807369,-0.688189767823,-0.410928675429,0.326667860516,0.500819945822,1.0,0.0,0.0,0.0,0.0,0.0,0.0,1.0,0.0,0.0,0.0,0.0,0.0,0.0,1.0,0.0,0.0,0.0,0.0,0.0,0.0,1.0,0.0,0.0,0.0,0.0,0.0,0.0,1.0,0.0,0.0,0.0,0.0,0.0,0.0,1.0
1678098014059823029,93,1678098014059689701,map,20.8220695693,2.07256019626,1.40069657849,-0.688571604717,-0.41533795173,0.324708899789,0.497923312327,1.0,0.0,0.0,0.0,0.0,0.0,0.0,1.0,0.0,0.0,0.0,0.0,0.0,0.0,1.0,0.0,0.0,0.0,0.0,0.0,0.0,1.0,0.0,0.0,0.0,0.0,0.0,0.0,1.0,0.0,0.0,0.0,0.0,0.0,0.0,1.0
1678098014098873709,94,1678098014098761972,map,20.8220309693,2.07083777881,1.40588337961,-0.688713943902,-0.419748520327,0.322523076113,0.495442411284,1.0,0.0,0.0,0.0,0.0,0.0,0.0,1.0,0.0,0.0,0.0,0.0,0.0,0.0,1.0,0.0,0.0,0.0,0.0,0.0,0.0,1.0,0.0,0.0,0.0,0.0,0.0,0.0,1.0,0.0,0.0,0.0,0.0,0.0,0.0,1.0
1678098014127477429,95,1678098014127190942,map,20.8187141243,2.07193878825,1.40502282272,-0.687956297728,-0.42408791232,0.321452905202,0.493491311485,1.0,0.0,0.0,0.0,0.0,0.0,0.0,1.0,0.0,0.0,0.0,0.0,0.0,0.0,1.0,0.0,0.0,0.0,0.0,0.0,0.0,1.0,0.0,0.0,0.0,0.0,0.0,0.0,1.0,0.0,0.0,0.0,0.0,0.0,0.0,1.0
1678098014156782416,96,1678098014156558559,map,20.8147495459,2.06936421398,1.40078201439,-0.687429250513,-0.428044451275,0.320854115723,0.491194091315,1.0,0.0,0.0,0.0,0.0,0.0,0.0,1.0,0.0,0.0,0.0,0.0,0.0,0.0,1.0,0.0,0.0,0.0,0.0,0.0,0.0,1.0,0.0,0.0,0.0,0.0,0.0,0.0,1.0,0.0,0.0,0.0,0.0,0.0,0.0,1.0
1678098014194012201,97,1678098014193823480,map,20.8155643233,2.0675038363,1.40255312497,-0.686789009053,-0.432415401766,0.319917032989,0.488866938084,1.0,0.0,0.0,0.0,0.0,0.0,0.0,1.0,0.0,0.0,0.0,0.0,0.0,0.0,1.0,0.0,0.0,0.0,0.0,0.0,0.0,1.0,0.0,0.0,0.0,0.0,0.0,0.0,1.0,0.0,0.0,0.0,0.0,0.0,0.0,1.0
1678098014226836324,98,1678098014226677661,map,20.8139215835,2.06715233523,1.40033018269,-0.685310186993,-0.436314197778,0.320041490705,0.487394441674,1.0,0.0,0.0,0.0,0.0,0.0,0.0,1.0,0.0,0.0,0.0,0.0,0.0,0.0,1.0,0.0,0.0,0.0,0.0,0.0,0.0,1.0,0.0,0.0,0.0,0.0,0.0,0.0,1.0,0.0,0.0,0.0,0.0,0.0,0.0,1.0
1678098014257680861,99,1678098014257531814,map,20.8127274955,2.07011950632,1.40307570586,-0.685188340794,-0.438317647059,0.320117731938,0.485715177206,1.0,0.0,0.0,0.0,0.0,0.0,0.0,1.0,0.0,0.0,0.0,0.0,0.0,0.0,1.0,0.0,0.0,0.0,0.0,0.0,0.0,1.0,0.0,0.0,0.0,0.0,0.0,0.0,1.0,0.0,0.0,0.0,0.0,0.0,0.0,1.0
1678098014300596868,100,1678098014300461644,map,20.8119471118,2.07091038084,1.40057825866,-0.685847502732,-0.439783492519,0.31966104897,0.483756617922,1.0,0.0,0.0,0.0,0.0,0.0,0.0,1.0,0.0,0.0,0.0,0.0,0.0,0.0,1.0,0.0,0.0,0.0,0.0,0.0,0.0,1.0,0.0,0.0,0.0,0.0,0.0,0.0,1.0,0.0,0.0,0.0,0.0,0.0,0.0,1.0
1678098014334970856,101,1678098014334833221,map,20.808784223,2.06906658604,1.40312288587,-0.686571057307,-0.440440841471,0.31925834872,0.482396231121,1.0,0.0,0.0,0.0,0.0,0.0,0.0,1.0,0.0,0.0,0.0,0.0,0.0,0.0,1.0,0.0,0.0,0.0,0.0,0.0,0.0,1.0,0.0,0.0,0.0,0.0,0.0,0.0,1.0,0.0,0.0,0.0,0.0,0.0,0.0,1.0
1678098014363378642,102,1678098014363243549,map,20.807247672,2.06977158847,1.39896148663,-0.687910440218,-0.439375104334,0.31828305327,0.482104390337,1.0,0.0,0.0,0.0,0.0,0.0,0.0,1.0,0.0,0.0,0.0,0.0,0.0,0.0,1.0,0.0,0.0,0.0,0.0,0.0,0.0,1.0,0.0,0.0,0.0,0.0,0.0,0.0,1.0,0.0,0.0,0.0,0.0,0.0,0.0,1.0
1678098014400485099,103,1678098014400352151,map,20.8088224079,2.07257124374,1.40029784446,-0.690042213887,-0.438386203369,0.316448257164,0.481165054405,1.0,0.0,0.0,0.0,0.0,0.0,0.0,1.0,0.0,0.0,0.0,0.0,0.0,0.0,1.0,0.0,0.0,0.0,0.0,0.0,0.0,1.0,0.0,0.0,0.0,0.0,0.0,0.0,1.0,0.0,0.0,0.0,0.0,0.0,0.0,1.0
1678098014435787159,104,1678098014435474271,map,20.8076969292,2.07293613638,1.40018363527,-0.691266346424,-0.437477989041,0.315030199203,0.481165099614,1.0,0.0,0.0,0.0,0.0,0.0,0.0,1.0,0.0,0.0,0.0,0.0,0.0,0.0,1.0,0.0,0.0,0.0,0.0,0.0,0.0,1.0,0.0,0.0,0.0,0.0,0.0,0.0,1.0,0.0,0.0,0.0,0.0,0.0,0.0,1.0
1678098014462975736,105,1678098014462809445,map,20.8100029272,2.07244618224,1.40034588398,-0.691878512864,-0.43669173467,0.313207962308,0.482187970372,1.0,0.0,0.0,0.0,0.0,0.0,0.0,1.0,0.0,0.0,0.0,0.0,0.0,0.0,1.0,0.0,0.0,0.0,0.0,0.0,0.0,1.0,0.0,0.0,0.0,0.0,0.0,0.0,1.0,0.0,0.0,0.0,0.0,0.0,0.0,1.0
1678098014504983188,106,1678098014504687961,map,20.8084544577,2.07325329091,1.40009926883,-0.692766256135,-0.434613301389,0.3105887648,0.48448006413,1.0,0.0,0.0,0.0,0.0,0.0,0.0,1.0,0.0,0.0,0.0,0.0,0.0,0.0,1.0,0.0,0.0,0.0,0.0,0.0,0.0,1.0,0.0,0.0,0.0,0.0,0.0,0.0,1.0,0.0,0.0,0.0,0.0,0.0,0.0,1.0
1678098014531734093,107,1678098014531445722,map,20.8110669194,2.07287281704,1.40077889117,-0.693709199921,-0.431020948125,0.308637657837,0.487576937648,1.0,0.0,0.0,0.0,0.0,0.0,0.0,1.0,0.0,0.0,0.0,0.0,0.0,0.0,1.0,0.0,0.0,0.0,0.0,0.0,0.0,1.0,0.0,0.0,0.0,0.0,0.0,0.0,1.0,0.0,0.0,0.0,0.0,0.0,0.0,1.0
1678098014566037957,108,1678098014565748788,map,20.8126118421,2.07680242859,1.40186548082,-0.694489149404,-0.427602210868,0.308971985321,0.48926213184,1.0,0.0,0.0,0.0,0.0,0.0,0.0,1.0,0.0,0.0,0.0,0.0,0.0,0.0,1.0,0.0,0.0,0.0,0.0,0.0,0.0,1.0,0.0,0.0,0.0,0.0,0.0,0.0,1.0,0.0,0.0,0.0,0.0,0.0,0.0,1.0
1678098014606625565,109,1678098014606164183,map,20.8135296062,2.08137549034,1.40126674076,-0.695404276337,-0.424120030855,0.308652002708,0.491191483631,1.0,0.0,0.0,0.0,0.0,0.0,0.0,1.0,0.0,0.0,0.0,0.0,0.0,0.0,1.0,0.0,0.0,0.0,0.0,0.0,0.0,1.0,0.0,0.0,0.0,0.0,0.0,0.0,1.0,0.0,0.0,0.0,0.0,0.0,0.0,1.0
1678098014634074800,110,1678098014633946418,map,20.8171826742,2.08128905224,1.40045232191,-0.695871882535,-0.420937717789,0.307135898148,0.494207774711,1.0,0.0,0.0,0.0,0.0,0.0,0.0,1.0,0.0,0.0,0.0,0.0,0.0,0.0,1.0,0.0,0.0,0.0,0.0,0.0,0.0,1.0,0.0,0.0,0.0,0.0,0.0,0.0,1.0,0.0,0.0,0.0,0.0,0.0,0.0,1.0
1678098014664301587,111,1678098014664163035,map,20.8207855915,2.08557310864,1.40341065641,-0.695764656285,-0.417676691392,0.30610240184,0.497754022464,1.0,0.0,0.0,0.0,0.0,0.0,0.0,1.0,0.0,0.0,0.0,0.0,0.0,0.0,1.0,0.0,0.0,0.0,0.0,0.0,0.0,1.0,0.0,0.0,0.0,0.0,0.0,0.0,1.0,0.0,0.0,0.0,0.0,0.0,0.0,1.0
1678098014695199079,112,1678098014695067117,map,20.8220810477,2.08864493766,1.4026534708,-0.696440413969,-0.414418301473,0.30449264962,0.50051217275,1.0,0.0,0.0,0.0,0.0,0.0,0.0,1.0,0.0,0.0,0.0,0.0,0.0,0.0,1.0,0.0,0.0,0.0,0.0,0.0,0.0,1.0,0.0,0.0,0.0,0.0,0.0,0.0,1.0,0.0,0.0,0.0,0.0,0.0,0.0,1.0
1678098014727469135,113,1678098014727248214,map,20.8273689728,2.09392426212,1.40317319938,-0.697489355143,-0.411505772701,0.302742769848,0.502512134883,1.0,0.0,0.0,0.0,0.0,0.0,0.0,1.0,0.0,0.0,0.0,0.0,0.0,0.0,1.0,0.0,0.0,0.0,0.0,0.0,0.0,1.0,0.0,0.0,0.0,0.0,0.0,0.0,1.0,0.0,0.0,0.0,0.0,0.0,0.0,1.0
1678098014762737970,114,1678098014762457884,map,20.8329405761,2.09149913118,1.40783128983,-0.699060946143,-0.408020092196,0.300995853051,0.504217132954,1.0,0.0,0.0,0.0,0.0,0.0,0.0,1.0,0.0,0.0,0.0,0.0,0.0,0.0,1.0,0.0,0.0,0.0,0.0,0.0,0.0,1.0,0.0,0.0,0.0,0.0,0.0,0.0,1.0,0.0,0.0,0.0,0.0,0.0,0.0,1.0
1678098014810055642,115,1678098014809131121,map,20.8304138523,2.09179145407,1.40504328596,-0.700262530655,-0.40506770585,0.300083088662,0.505472785706,1.0,0.0,0.0,0.0,0.0,0.0,0.0,1.0,0.0,0.0,0.0,0.0,0.0,0.0,1.0,0.0,0.0,0.0,0.0,0.0,0.0,1.0,0.0,0.0,0.0,0.0,0.0,0.0,1.0,0.0,0.0,0.0,0.0,0.0,0.0,1.0
1678098014836124761,116,1678098014835812629,map,20.8359055982,2.09328083314,1.40302242919,-0.701970294157,-0.402281222327,0.29790385716,0.506617018262,1.0,0.0,0.0,0.0,0.0,0.0,0.0,1.0,0.0,0.0,0.0,0.0,0.0,0.0,1.0,0.0,0.0,0.0,0.0,0.0,0.0,1.0,0.0,0.0,0.0,0.0,0.0,0.0,1.0,0.0,0.0,0.0,0.0,0.0,0.0,1.0
1678098014863049449,117,1678098014862889877,map,20.8385742389,2.09633525303,1.40899906314,-0.703167476582,-0.401459880834,0.294631852186,0.507520965455,1.0,0.0,0.0,0.0,0.0,0.0,0.0,1.0,0.0,0.0,0.0,0.0,0.0,0.0,1.0,0.0,0.0,0.0,0.0,0.0,0.0,1.0,0.0,0.0,0.0,0.0,0.0,0.0,1.0,0.0,0.0,0.0,0.0,0.0,0.0,1.0
1678098014897766949,118,1678098014897584629,map,20.8443246911,2.095938807,1.40754009762,-0.704166205527,-0.399359853248,0.29310947735,0.50867328063,1.0,0.0,0.0,0.0,0.0,0.0,0.0,1.0,0.0,0.0,0.0,0.0,0.0,0.0,1.0,0.0,0.0,0.0,0.0,0.0,0.0,1.0,0.0,0.0,0.0,0.0,0.0,0.0,1.0,0.0,0.0,0.0,0.0,0.0,0.0,1.0
1678098014930805755,119,1678098014930648870,map,20.8446560345,2.09926359553,1.40506712939,-0.705604667993,-0.396893478847,0.291509613955,0.509528953285,1.0,0.0,0.0,0.0,0.0,0.0,0.0,1.0,0.0,0.0,0.0,0.0,0.0,0.0,1.0,0.0,0.0,0.0,0.0,0.0,0.0,1.0,0.0,0.0,0.0,0.0,0.0,0.0,1.0,0.0,0.0,0.0,0.0,0.0,0.0,1.0
1678098014963947302,120,1678098014963800937,map,20.8484321944,2.09966134498,1.4042821439,-0.706423493838,-0.395003193276,0.290143036413,0.51064214058,1.0,0.0,0.0,0.0,0.0,0.0,0.0,1.0,0.0,0.0,0.0,0.0,0.0,0.0,1.0,0.0,0.0,0.0,0.0,0.0,0.0,1.0,0.0,0.0,0.0,0.0,0.0,0.0,1.0,0.0,0.0,0.0,0.0,0.0,0.0,1.0
1678098014998347962,121,1678098014998205993,map,20.8536652075,2.10171301029,1.40744925914,-0.706985564973,-0.393752427422,0.288585500525,0.511711686441,1.0,0.0,0.0,0.0,0.0,0.0,0.0,1.0,0.0,0.0,0.0,0.0,0.0,0.0,1.0,0.0,0.0,0.0,0.0,0.0,0.0,1.0,0.0,0.0,0.0,0.0,0.0,0.0,1.0,0.0,0.0,0.0,0.0,0.0,0.0,1.0
1678098015036902997,122,1678098015036634764,map,20.8541254166,2.10508828476,1.40432468939,-0.708304913555,-0.391103621511,0.286287825243,0.51320693748,1.0,0.0,0.0,0.0,0.0,0.0,0.0,1.0,0.0,0.0,0.0,0.0,0.0,0.0,1.0,0.0,0.0,0.0,0.0,0.0,0.0,1.0,0.0,0.0,0.0,0.0,0.0,0.0,1.0,0.0,0.0,0.0,0.0,0.0,0.0,1.0
1678098015068026974,123,1678098015067405821,map,20.8601290594,2.10865795043,1.4047743747,-0.710362614383,-0.387477983258,0.285068055583,0.51379179986,1.0,0.0,0.0,0.0,0.0,0.0,0.0,1.0,0.0,0.0,0.0,0.0,0.0,0.0,1.0,0.0,0.0,0.0,0.0,0.0,0.0,1.0,0.0,0.0,0.0,0.0,0.0,0.0,1.0,0.0,0.0,0.0,0.0,0.0,0.0,1.0
1678098015100309352,124,1678098015100067176,map,20.8620106199,2.11268269377,1.40502861164,-0.711969172,-0.384159421262,0.28408178352,0.514605669806,1.0,0.0,0.0,0.0,0.0,0.0,0.0,1.0,0.0,0.0,0.0,0.0,0.0,0.0,1.0,0.0,0.0,0.0,0.0,0.0,0.0,1.0,0.0,0.0,0.0,0.0,0.0,0.0,1.0,0.0,0.0,0.0,0.0,0.0,0.0,1.0
1678098015135839526,125,1678098015135446311,map,20.8634911795,2.11569767936,1.40244930757,-0.713945567211,-0.381157207917,0.282539812293,0.514948685063,1.0,0.0,0.0,0.0,0.0,0.0,0.0,1.0,0.0,0.0,0.0,0.0,0.0,0.0,1.0,0.0,0.0,0.0,0.0,0.0,0.0,1.0,0.0,0.0,0.0,0.0,0.0,0.0,1.0,0.0,0.0,0.0,0.0,0.0,0.0,1.0
1678098015165401625,126,1678098015165258680,map,20.8649262119,2.12226666063,1.39973392142,-0.716930224323,-0.377220988279,0.28106300247,0.514508516066,1.0,0.0,0.0,0.0,0.0,0.0,0.0,1.0,0.0,0.0,0.0,0.0,0.0,0.0,1.0,0.0,0.0,0.0,0.0,0.0,0.0,1.0,0.0,0.0,0.0,0.0,0.0,0.0,1.0,0.0,0.0,0.0,0.0,0.0,0.0,1.0
1678098015197529741,127,1678098015197396176,map,20.873461609,2.12727842434,1.40091948341,-0.71922635942,-0.373727820211,0.279585360501,0.514658153309,1.0,0.0,0.0,0.0,0.0,0.0,0.0,1.0,0.0,0.0,0.0,0.0,0.0,0.0,1.0,0.0,0.0,0.0,0.0,0.0,0.0,1.0,0.0,0.0,0.0,0.0,0.0,0.0,1.0,0.0,0.0,0.0,0.0,0.0,0.0,1.0
1678098015238075984,128,1678098015237896544,map,20.8764770269,2.13152567187,1.40181076182,-0.721630584725,-0.369614608469,0.278356987481,0.51492885926,1.0,0.0,0.0,0.0,0.0,0.0,0.0,1.0,0.0,0.0,0.0,0.0,0.0,0.0,1.0,0.0,0.0,0.0,0.0,0.0,0.0,1.0,0.0,0.0,0.0,0.0,0.0,0.0,1.0,0.0,0.0,0.0,0.0,0.0,0.0,1.0
1678098015273173081,129,1678098015272836009,map,20.8837543486,2.14012722862,1.40224532593,-0.725346680118,-0.364219268628,0.277217048748,0.514166544602,1.0,0.0,0.0,0.0,0.0,0.0,0.0,1.0,0.0,0.0,0.0,0.0,0.0,0.0,1.0,0.0,0.0,0.0,0.0,0.0,0.0,1.0,0.0,0.0,0.0,0.0,0.0,0.0,1.0,0.0,0.0,0.0,0.0,0.0,0.0,1.0
1678098015314664162,130,1678098015313845243,map,20.8800625812,2.1499619194,1.39837601567,-0.728419138921,-0.35917439332,0.276568600499,0.513720907891,1.0,0.0,0.0,0.0,0.0,0.0,0.0,1.0,0.0,0.0,0.0,0.0,0.0,0.0,1.0,0.0,0.0,0.0,0.0,0.0,0.0,1.0,0.0,0.0,0.0,0.0,0.0,0.0,1.0,0.0,0.0,0.0,0.0,0.0,0.0,1.0
1678098015341567749,131,1678098015341420788,map,20.8842124201,2.15669820547,1.40122009975,-0.731094646205,-0.354978459162,0.275633447637,0.513339167967,1.0,0.0,0.0,0.0,0.0,0.0,0.0,1.0,0.0,0.0,0.0,0.0,0.0,0.0,1.0,0.0,0.0,0.0,0.0,0.0,0.0,1.0,0.0,0.0,0.0,0.0,0.0,0.0,1.0,0.0,0.0,0.0,0.0,0.0,0.0,1.0
1678098015372657766,132,1678098015371826764,map,20.8822357771,2.16588591804,1.39708083345,-0.732999372876,-0.352500826624,0.273095482617,0.513686682278,1.0,0.0,0.0,0.0,0.0,0.0,0.0,1.0,0.0,0.0,0.0,0.0,0.0,0.0,1.0,0.0,0.0,0.0,0.0,0.0,0.0,1.0,0.0,0.0,0.0,0.0,0.0,0.0,1.0,0.0,0.0,0.0,0.0,0.0,0.0,1.0
1678098015405796018,133,1678098015405370842,map,20.8813077277,2.17421799465,1.39245018977,-0.73409650461,-0.350127040591,0.271282093651,0.514703244759,1.0,0.0,0.0,0.0,0.0,0.0,0.0,1.0,0.0,0.0,0.0,0.0,0.0,0.0,1.0,0.0,0.0,0.0,0.0,0.0,0.0,1.0,0.0,0.0,0.0,0.0,0.0,0.0,1.0,0.0,0.0,0.0,0.0,0.0,0.0,1.0
1678098015445071936,134,1678098015444406134,map,20.8838785199,2.17968768697,1.39674367256,-0.735334076297,-0.349356492642,0.267756098363,0.515306252523,1.0,0.0,0.0,0.0,0.0,0.0,0.0,1.0,0.0,0.0,0.0,0.0,0.0,0.0,1.0,0.0,0.0,0.0,0.0,0.0,0.0,1.0,0.0,0.0,0.0,0.0,0.0,0.0,1.0,0.0,0.0,0.0,0.0,0.0,0.0,1.0
1678098015471621141,135,1678098015471449249,map,20.8797803798,2.19451556078,1.38781669526,-0.736879652777,-0.347774886762,0.265878258347,0.515140460749,1.0,0.0,0.0,0.0,0.0,0.0,0.0,1.0,0.0,0.0,0.0,0.0,0.0,0.0,1.0,0.0,0.0,0.0,0.0,0.0,0.0,1.0,0.0,0.0,0.0,0.0,0.0,0.0,1.0,0.0,0.0,0.0,0.0,0.0,0.0,1.0
1678098015530713552,136,1678098015530389905,map,20.8764727763,2.20218338267,1.38609610882,-0.737504586115,-0.347191439761,0.263686807103,0.51576578514,1.0,0.0,0.0,0.0,0.0,0.0,0.0,1.0,0.0,0.0,0.0,0.0,0.0,0.0,1.0,0.0,0.0,0.0,0.0,0.0,0.0,1.0,0.0,0.0,0.0,0.0,0.0,0.0,1.0,0.0,0.0,0.0,0.0,0.0,0.0,1.0
1678098015567685237,137,1678098015566753062,map,20.8748422885,2.20623366226,1.38716928561,-0.738333410322,-0.346507965895,0.26097064648,0.516420681706,1.0,0.0,0.0,0.0,0.0,0.0,0.0,1.0,0.0,0.0,0.0,0.0,0.0,0.0,1.0,0.0,0.0,0.0,0.0,0.0,0.0,1.0,0.0,0.0,0.0,0.0,0.0,0.0,1.0,0.0,0.0,0.0,0.0,0.0,0.0,1.0
1678098015613420047,138,1678098015610917839,map,20.8712499896,2.21751566294,1.38420929865,-0.739588742318,-0.344913773416,0.258317971301,0.517024996652,1.0,0.0,0.0,0.0,0.0,0.0,0.0,1.0,0.0,0.0,0.0,0.0,0.0,0.0,1.0,0.0,0.0,0.0,0.0,0.0,0.0,1.0,0.0,0.0,0.0,0.0,0.0,0.0,1.0,0.0,0.0,0.0,0.0,0.0,0.0,1.0
1678098015661913160,139,1678098015661537752,map,20.8723414948,2.23424399713,1.38374648999,-0.740285068584,-0.344116873768,0.256545336638,0.517441863492,1.0,0.0,0.0,0.0,0.0,0.0,0.0,1.0,0.0,0.0,0.0,0.0,0.0,0.0,1.0,0.0,0.0,0.0,0.0,0.0,0.0,1.0,0.0,0.0,0.0,0.0,0.0,0.0,1.0,0.0,0.0,0.0,0.0,0.0,0.0,1.0
1678098015705414948,140,1678098015704488561,map,20.8741925706,2.24954219323,1.38801551692,-0.741078910853,-0.342859338521,0.255610148552,0.517603143827,1.0,0.0,0.0,0.0,0.0,0.0,0.0,1.0,0.0,0.0,0.0,0.0,0.0,0.0,1.0,0.0,0.0,0.0,0.0,0.0,0.0,1.0,0.0,0.0,0.0,0.0,0.0,0.0,1.0,0.0,0.0,0.0,0.0,0.0,0.0,1.0
1678098015749009125,141,1678098015746195148,map,20.8641532527,2.25922194646,1.38351238773,-0.741145386177,-0.341265296321,0.255238204835,0.51874363904,1.0,0.0,0.0,0.0,0.0,0.0,0.0,1.0,0.0,0.0,0.0,0.0,0.0,0.0,1.0,0.0,0.0,0.0,0.0,0.0,0.0,1.0,0.0,0.0,0.0,0.0,0.0,0.0,1.0,0.0,0.0,0.0,0.0,0.0,0.0,1.0
1678098015785492846,142,1678098015785255477,map,20.8623686564,2.27274173956,1.38260776934,-0.740809572385,-0.339829035429,0.255439645085,0.520065360177,1.0,0.0,0.0,0.0,0.0,0.0,0.0,1.0,0.0,0.0,0.0,0.0,0.0,0.0,1.0,0.0,0.0,0.0,0.0,0.0,0.0,1.0,0.0,0.0,0.0,0.0,0.0,0.0,1.0,0.0,0.0,0.0,0.0,0.0,0.0,1.0
1678098015823265233,143,1678098015821340976,map,20.8607771884,2.28092867429,1.38661558329,-0.740677948437,-0.337643113739,0.256541187399,0.521133309747,1.0,0.0,0.0,0.0,0.0,0.0,0.0,1.0,0.0,0.0,0.0,0.0,0.0,0.0,1.0,0.0,0.0,0.0,0.0,0.0,0.0,1.0,0.0,0.0,0.0,0.0,0.0,0.0,1.0,0.0,0.0,0.0,0.0,0.0,0.0,1.0
1678098015874222182,144,1678098015870142362,map,20.8559131783,2.29007132163,1.38708576641,-0.740099394647,-0.332668941755,0.259371996048,0.523746570253,1.0,0.0,0.0,0.0,0.0,0.0,0.0,1.0,0.0,0.0,0.0,0.0,0.0,0.0,1.0,0.0,0.0,0.0,0.0,0.0,0.0,1.0,0.0,0.0,0.0,0.0,0.0,0.0,1.0,0.0,0.0,0.0,0.0,0.0,0.0,1.0
1678098015922526313,145,1678098015920734898,map,20.8580087014,2.2971633971,1.39152159054,-0.73661891687,-0.330627658706,0.260956569774,0.529131018476,1.0,0.0,0.0,0.0,0.0,0.0,0.0,1.0,0.0,0.0,0.0,0.0,0.0,0.0,1.0,0.0,0.0,0.0,0.0,0.0,0.0,1.0,0.0,0.0,0.0,0.0,0.0,0.0,1.0,0.0,0.0,0.0,0.0,0.0,0.0,1.0
1678098015968883163,146,1678098015968549827,map,20.8497890335,2.30609724203,1.38810454429,-0.733727923,-0.327291650248,0.259994016334,0.535655355184,1.0,0.0,0.0,0.0,0.0,0.0,0.0,1.0,0.0,0.0,0.0,0.0,0.0,0.0,1.0,0.0,0.0,0.0,0.0,0.0,0.0,1.0,0.0,0.0,0.0,0.0,0.0,0.0,1.0,0.0,0.0,0.0,0.0,0.0,0.0,1.0
1678098016026965564,147,1678098016026786523,map,20.8475832485,2.31217547869,1.39068302828,-0.732692529761,-0.321923180761,0.258777954113,0.540889185291,1.0,0.0,0.0,0.0,0.0,0.0,0.0,1.0,0.0,0.0,0.0,0.0,0.0,0.0,1.0,0.0,0.0,0.0,0.0,0.0,0.0,1.0,0.0,0.0,0.0,0.0,0.0,0.0,1.0,0.0,0.0,0.0,0.0,0.0,0.0,1.0
1678098016077185795,148,1678098016075366894,map,20.8450894676,2.32157470275,1.39444792283,-0.732708511455,-0.313600592045,0.256764596567,0.546685343946,1.0,0.0,0.0,0.0,0.0,0.0,0.0,1.0,0.0,0.0,0.0,0.0,0.0,0.0,1.0,0.0,0.0,0.0,0.0,0.0,0.0,1.0,0.0,0.0,0.0,0.0,0.0,0.0,1.0,0.0,0.0,0.0,0.0,0.0,0.0,1.0
1678098016120373365,149,1678098016118668996,map,20.8407001053,2.33392170963,1.39887819866,-0.732323952231,-0.304837948617,0.254568579916,0.553145866639,1.0,0.0,0.0,0.0,0.0,0.0,0.0,1.0,0.0,0.0,0.0,0.0,0.0,0.0,1.0,0.0,0.0,0.0,0.0,0.0,0.0,1.0,0.0,0.0,0.0,0.0,0.0,0.0,1.0,0.0,0.0,0.0,0.0,0.0,0.0,1.0
1678098016176456350,150,1678098016164102597,map,20.8333441932,2.33983858838,1.40279946402,-0.733279361407,-0.295123754888,0.247578685524,0.560275077707,1.0,0.0,0.0,0.0,0.0,0.0,0.0,1.0,0.0,0.0,0.0,0.0,0.0,0.0,1.0,0.0,0.0,0.0,0.0,0.0,0.0,1.0,0.0,0.0,0.0,0.0,0.0,0.0,1.0,0.0,0.0,0.0,0.0,0.0,0.0,1.0
1678098016226789196,151,1678098016226174122,map,20.8321401582,2.35089345066,1.40256848106,-0.735286878994,-0.289214062787,0.243222360574,0.562628935093,1.0,0.0,0.0,0.0,0.0,0.0,0.0,1.0,0.0,0.0,0.0,0.0,0.0,0.0,1.0,0.0,0.0,0.0,0.0,0.0,0.0,1.0,0.0,0.0,0.0,0.0,0.0,0.0,1.0,0.0,0.0,0.0,0.0,0.0,0.0,1.0
1678098016281485106,152,1678098016272779585,map,20.8294862163,2.36323713721,1.40389137241,-0.736379364692,-0.286423612041,0.242864743308,0.562782117436,1.0,0.0,0.0,0.0,0.0,0.0,0.0,1.0,0.0,0.0,0.0,0.0,0.0,0.0,1.0,0.0,0.0,0.0,0.0,0.0,0.0,1.0,0.0,0.0,0.0,0.0,0.0,0.0,1.0,0.0,0.0,0.0,0.0,0.0,0.0,1.0
1678098016326184986,153,1678098016318274682,map,20.8313571269,2.37327902372,1.4081324637,-0.737397349196,-0.283117056911,0.240929042391,0.563953161834,1.0,0.0,0.0,0.0,0.0,0.0,0.0,1.0,0.0,0.0,0.0,0.0,0.0,0.0,1.0,0.0,0.0,0.0,0.0,0.0,0.0,1.0,0.0,0.0,0.0,0.0,0.0,0.0,1.0,0.0,0.0,0.0,0.0,0.0,0.0,1.0
1678098016350776035,154,1678098016349864589,map,20.8259109185,2.38254457853,1.40498854265,-0.738896473615,-0.277669918968,0.238150135491,0.565876278297,1.0,0.0,0.0,0.0,0.0,0.0,0.0,1.0,0.0,0.0,0.0,0.0,0.0,0.0,1.0,0.0,0.0,0.0,0.0,0.0,0.0,1.0,0.0,0.0,0.0,0.0,0.0,0.0,1.0,0.0,0.0,0.0,0.0,0.0,0.0,1.0
1678098016399471314,155,1678098016396140596,map,20.8243150938,2.39232108559,1.40746033863,-0.741710872366,-0.271773203455,0.237164901891,0.565470723123,1.0,0.0,0.0,0.0,0.0,0.0,0.0,1.0,0.0,0.0,0.0,0.0,0.0,0.0,1.0,0.0,0.0,0.0,0.0,0.0,0.0,1.0,0.0,0.0,0.0,0.0,0.0,0.0,1.0,0.0,0.0,0.0,0.0,0.0,0.0,1.0
1678098016439343167,156,1678098016438830509,map,20.8238330395,2.39906705754,1.40233840026,-0.743940225859,-0.264076668138,0.238723658,0.565532944235,1.0,0.0,0.0,0.0,0.0,0.0,0.0,1.0,0.0,0.0,0.0,0.0,0.0,0.0,1.0,0.0,0.0,0.0,0.0,0.0,0.0,1.0,0.0,0.0,0.0,0.0,0.0,0.0,1.0,0.0,0.0,0.0,0.0,0.0,0.0,1.0
1678098016478078787,157,1678098016477287913,map,20.8735433901,2.38134926209,1.40972855343,-0.747043328684,-0.254153572443,0.239723653641,0.565565854755,1.0,0.0,0.0,0.0,0.0,0.0,0.0,1.0,0.0,0.0,0.0,0.0,0.0,0.0,1.0,0.0,0.0,0.0,0.0,0.0,0.0,1.0,0.0,0.0,0.0,0.0,0.0,0.0,1.0,0.0,0.0,0.0,0.0,0.0,0.0,1.0
1678098016501834794,158,1678098016500013211,map,20.8699152154,2.38874603163,1.40593965847,-0.749665034048,-0.246438224659,0.235231192124,0.567394759503,1.0,0.0,0.0,0.0,0.0,0.0,0.0,1.0,0.0,0.0,0.0,0.0,0.0,0.0,1.0,0.0,0.0,0.0,0.0,0.0,0.0,1.0,0.0,0.0,0.0,0.0,0.0,0.0,1.0,0.0,0.0,0.0,0.0,0.0,0.0,1.0
1678098016530096020,159,1678098016529851164,map,20.8750421373,2.39976533345,1.40491522595,-0.752417777475,-0.240593511728,0.231966008451,0.567603726343,1.0,0.0,0.0,0.0,0.0,0.0,0.0,1.0,0.0,0.0,0.0,0.0,0.0,0.0,1.0,0.0,0.0,0.0,0.0,0.0,0.0,1.0,0.0,0.0,0.0,0.0,0.0,0.0,1.0,0.0,0.0,0.0,0.0,0.0,0.0,1.0
1678098016551051097,160,1678098016550835824,map,20.8769864666,2.41163103453,1.40510378147,-0.754564219066,-0.234486118022,0.231066392794,0.567677193674,1.0,0.0,0.0,0.0,0.0,0.0,0.0,1.0,0.0,0.0,0.0,0.0,0.0,0.0,1.0,0.0,0.0,0.0,0.0,0.0,0.0,1.0,0.0,0.0,0.0,0.0,0.0,0.0,1.0,0.0,0.0,0.0,0.0,0.0,0.0,1.0
1678098016573932525,161,1678098016573753698,map,20.8791449821,2.41621711948,1.40152783089,-0.756011024533,-0.230870883891,0.228161384631,0.568408619593,1.0,0.0,0.0,0.0,0.0,0.0,0.0,1.0,0.0,0.0,0.0,0.0,0.0,0.0,1.0,0.0,0.0,0.0,0.0,0.0,0.0,1.0,0.0,0.0,0.0,0.0,0.0,0.0,1.0,0.0,0.0,0.0,0.0,0.0,0.0,1.0
1678098016599345869,162,1678098016599070732,map,20.8786848462,2.42974852837,1.39742146846,-0.757802951311,-0.230523535989,0.225491704032,0.567227527529,1.0,0.0,0.0,0.0,0.0,0.0,0.0,1.0,0.0,0.0,0.0,0.0,0.0,0.0,1.0,0.0,0.0,0.0,0.0,0.0,0.0,1.0,0.0,0.0,0.0,0.0,0.0,0.0,1.0,0.0,0.0,0.0,0.0,0.0,0.0,1.0
1678098016624373782,163,1678098016622886973,map,20.884569039,2.43981901068,1.39722154395,-0.760053850153,-0.228690916207,0.223403487051,0.565782164681,1.0,0.0,0.0,0.0,0.0,0.0,0.0,1.0,0.0,0.0,0.0,0.0,0.0,0.0,1.0,0.0,0.0,0.0,0.0,0.0,0.0,1.0,0.0,0.0,0.0,0.0,0.0,0.0,1.0,0.0,0.0,0.0,0.0,0.0,0.0,1.0
1678098016642338325,164,1678098016642094245,map,20.8846430041,2.44812152571,1.39475455567,-0.760925561914,-0.229205766417,0.225351410742,0.563625597953,1.0,0.0,0.0,0.0,0.0,0.0,0.0,1.0,0.0,0.0,0.0,0.0,0.0,0.0,1.0,0.0,0.0,0.0,0.0,0.0,0.0,1.0,0.0,0.0,0.0,0.0,0.0,0.0,1.0,0.0,0.0,0.0,0.0,0.0,0.0,1.0
1678098016666651315,165,1678098016666454923,map,20.8843781101,2.4567017063,1.39253386471,-0.76061422351,-0.229562353393,0.228315473476,0.562707004753,1.0,0.0,0.0,0.0,0.0,0.0,0.0,1.0,0.0,0.0,0.0,0.0,0.0,0.0,1.0,0.0,0.0,0.0,0.0,0.0,0.0,1.0,0.0,0.0,0.0,0.0,0.0,0.0,1.0,0.0,0.0,0.0,0.0,0.0,0.0,1.0
1678098016689640225,166,1678098016689413913,map,20.8907683253,2.47548772473,1.39798067523,-0.760644171887,-0.230885978913,0.231027548853,0.56101547214,1.0,0.0,0.0,0.0,0.0,0.0,0.0,1.0,0.0,0.0,0.0,0.0,0.0,0.0,1.0,0.0,0.0,0.0,0.0,0.0,0.0,1.0,0.0,0.0,0.0,0.0,0.0,0.0,1.0,0.0,0.0,0.0,0.0,0.0,0.0,1.0
1678098016713817197,167,1678098016711595228,map,20.8933765613,2.48634785439,1.39525402976,-0.760567723473,-0.231487374845,0.233298633297,0.559930397822,1.0,0.0,0.0,0.0,0.0,0.0,0.0,1.0,0.0,0.0,0.0,0.0,0.0,0.0,1.0,0.0,0.0,0.0,0.0,0.0,0.0,1.0,0.0,0.0,0.0,0.0,0.0,0.0,1.0,0.0,0.0,0.0,0.0,0.0,0.0,1.0
1678098016732263168,168,1678098016732114057,map,20.8930730286,2.49870343932,1.39741058262,-0.758963972082,-0.234053971586,0.236924829362,0.55951681523,1.0,0.0,0.0,0.0,0.0,0.0,0.0,1.0,0.0,0.0,0.0,0.0,0.0,0.0,1.0,0.0,0.0,0.0,0.0,0.0,0.0,1.0,0.0,0.0,0.0,0.0,0.0,0.0,1.0,0.0,0.0,0.0,0.0,0.0,0.0,1.0
1678098016753928185,169,1678098016753606831,map,20.8970275658,2.51200694726,1.39832706787,-0.757427822974,-0.235031796634,0.240356670266,0.559724779412,1.0,0.0,0.0,0.0,0.0,0.0,0.0,1.0,0.0,0.0,0.0,0.0,0.0,0.0,1.0,0.0,0.0,0.0,0.0,0.0,0.0,1.0,0.0,0.0,0.0,0.0,0.0,0.0,1.0,0.0,0.0,0.0,0.0,0.0,0.0,1.0
1678098016772332495,170,1678098016772031650,map,20.8966279136,2.52014815398,1.39703692696,-0.756822314766,-0.236596597621,0.244000442506,0.558306206197,1.0,0.0,0.0,0.0,0.0,0.0,0.0,1.0,0.0,0.0,0.0,0.0,0.0,0.0,1.0,0.0,0.0,0.0,0.0,0.0,0.0,1.0,0.0,0.0,0.0,0.0,0.0,0.0,1.0,0.0,0.0,0.0,0.0,0.0,0.0,1.0
1678098016799959074,171,1678098016798519272,map,20.9024211106,2.53568667524,1.39607554776,-0.756145629909,-0.239417459691,0.24549550064,0.557364325836,1.0,0.0,0.0,0.0,0.0,0.0,0.0,1.0,0.0,0.0,0.0,0.0,0.0,0.0,1.0,0.0,0.0,0.0,0.0,0.0,0.0,1.0,0.0,0.0,0.0,0.0,0.0,0.0,1.0,0.0,0.0,0.0,0.0,0.0,0.0,1.0
1678098016822526089,172,1678098016822136412,map,20.9058432181,2.54665354688,1.39757335244,-0.755002976055,-0.24222647422,0.247305051165,0.556899510514,1.0,0.0,0.0,0.0,0.0,0.0,0.0,1.0,0.0,0.0,0.0,0.0,0.0,0.0,1.0,0.0,0.0,0.0,0.0,0.0,0.0,1.0,0.0,0.0,0.0,0.0,0.0,0.0,1.0,0.0,0.0,0.0,0.0,0.0,0.0,1.0
1678098016849668530,173,1678098016848993061,map,20.9099445018,2.56324668293,1.40610201478,-0.753885928518,-0.245062024167,0.250460702455,0.555760735094,1.0,0.0,0.0,0.0,0.0,0.0,0.0,1.0,0.0,0.0,0.0,0.0,0.0,0.0,1.0,0.0,0.0,0.0,0.0,0.0,0.0,1.0,0.0,0.0,0.0,0.0,0.0,0.0,1.0,0.0,0.0,0.0,0.0,0.0,0.0,1.0
1678098016871150100,174,1678098016870343408,map,20.9092768557,2.57606431673,1.40512279096,-0.753928809986,-0.246060352965,0.251655955316,0.554720531848,1.0,0.0,0.0,0.0,0.0,0.0,0.0,1.0,0.0,0.0,0.0,0.0,0.0,0.0,1.0,0.0,0.0,0.0,0.0,0.0,0.0,1.0,0.0,0.0,0.0,0.0,0.0,0.0,1.0,0.0,0.0,0.0,0.0,0.0,0.0,1.0
1678098016895262003,175,1678098016895015453,map,20.9129321138,2.59059295505,1.41013019586,-0.752589693801,-0.250978785527,0.252693829977,0.553862986458,1.0,0.0,0.0,0.0,0.0,0.0,0.0,1.0,0.0,0.0,0.0,0.0,0.0,0.0,1.0,0.0,0.0,0.0,0.0,0.0,0.0,1.0,0.0,0.0,0.0,0.0,0.0,0.0,1.0,0.0,0.0,0.0,0.0,0.0,0.0,1.0
1678098016919749858,176,1678098016917922845,map,20.9182411284,2.6052944641,1.40942779348,-0.749485672854,-0.259140472778,0.253961412006,0.553733666525,1.0,0.0,0.0,0.0,0.0,0.0,0.0,1.0,0.0,0.0,0.0,0.0,0.0,0.0,1.0,0.0,0.0,0.0,0.0,0.0,0.0,1.0,0.0,0.0,0.0,0.0,0.0,0.0,1.0,0.0,0.0,0.0,0.0,0.0,0.0,1.0
1678098016941156083,177,1678098016939636700,map,20.9216279045,2.61444342363,1.41273259612,-0.747368304981,-0.269891765183,0.255013653596,0.550969203161,1.0,0.0,0.0,0.0,0.0,0.0,0.0,1.0,0.0,0.0,0.0,0.0,0.0,0.0,1.0,0.0,0.0,0.0,0.0,0.0,0.0,1.0,0.0,0.0,0.0,0.0,0.0,0.0,1.0,0.0,0.0,0.0,0.0,0.0,0.0,1.0
1678098016965148637,178,1678098016963780847,map,20.9170412727,2.62230080849,1.4155820396,-0.745551530213,-0.284055026346,0.252466006577,0.547472877924,1.0,0.0,0.0,0.0,0.0,0.0,0.0,1.0,0.0,0.0,0.0,0.0,0.0,0.0,1.0,0.0,0.0,0.0,0.0,0.0,0.0,1.0,0.0,0.0,0.0,0.0,0.0,0.0,1.0,0.0,0.0,0.0,0.0,0.0,0.0,1.0
1678098016989086507,179,1678098016988905124,map,20.9244736036,2.63447371021,1.41878703416,-0.742354526516,-0.297737598727,0.252345854108,0.54459491333,1.0,0.0,0.0,0.0,0.0,0.0,0.0,1.0,0.0,0.0,0.0,0.0,0.0,0.0,1.0,0.0,0.0,0.0,0.0,0.0,0.0,1.0,0.0,0.0,0.0,0.0,0.0,0.0,1.0,0.0,0.0,0.0,0.0,0.0,0.0,1.0
1678098017016100365,180,1678098017015790842,map,20.9257129097,2.64692736864,1.42091511769,-0.739664404036,-0.308585615888,0.257006620281,0.540017697809,1.0,0.0,0.0,0.0,0.0,0.0,0.0,1.0,0.0,0.0,0.0,0.0,0.0,0.0,1.0,0.0,0.0,0.0,0.0,0.0,0.0,1.0,0.0,0.0,0.0,0.0,0.0,0.0,1.0,0.0,0.0,0.0,0.0,0.0,0.0,1.0
1678098017035504609,181,1678098017035309735,map,20.9238371181,2.66182570889,1.41931228751,-0.740498709478,-0.319159665181,0.26066486578,0.530897887254,1.0,0.0,0.0,0.0,0.0,0.0,0.0,1.0,0.0,0.0,0.0,0.0,0.0,0.0,1.0,0.0,0.0,0.0,0.0,0.0,0.0,1.0,0.0,0.0,0.0,0.0,0.0,0.0,1.0,0.0,0.0,0.0,0.0,0.0,0.0,1.0
1678098017059060947,182,1678098017058699962,map,20.9247682447,2.67199627046,1.42320623898,-0.740141010697,-0.32706651131,0.26369212023,0.525057338668,1.0,0.0,0.0,0.0,0.0,0.0,0.0,1.0,0.0,0.0,0.0,0.0,0.0,0.0,1.0,0.0,0.0,0.0,0.0,0.0,0.0,1.0,0.0,0.0,0.0,0.0,0.0,0.0,1.0,0.0,0.0,0.0,0.0,0.0,0.0,1.0
1678098017080831181,183,1678098017080694455,map,20.9265374897,2.68245119071,1.42366674104,-0.736186247179,-0.334412832234,0.262654932316,0.526507585302,1.0,0.0,0.0,0.0,0.0,0.0,0.0,1.0,0.0,0.0,0.0,0.0,0.0,0.0,1.0,0.0,0.0,0.0,0.0,0.0,0.0,1.0,0.0,0.0,0.0,0.0,0.0,0.0,1.0,0.0,0.0,0.0,0.0,0.0,0.0,1.0
1678098017102962840,184,1678098017102591683,map,20.9282399472,2.69705131553,1.42144429829,-0.733324271119,-0.342441664465,0.260357616099,0.52648183648,1.0,0.0,0.0,0.0,0.0,0.0,0.0,1.0,0.0,0.0,0.0,0.0,0.0,0.0,1.0,0.0,0.0,0.0,0.0,0.0,0.0,1.0,0.0,0.0,0.0,0.0,0.0,0.0,1.0,0.0,0.0,0.0,0.0,0.0,0.0,1.0
1678098017133257549,185,1678098017132991639,map,20.9230757679,2.70346642189,1.42884247978,-0.731905325219,-0.351141727589,0.260610772723,0.522585943391,1.0,0.0,0.0,0.0,0.0,0.0,0.0,1.0,0.0,0.0,0.0,0.0,0.0,0.0,1.0,0.0,0.0,0.0,0.0,0.0,0.0,1.0,0.0,0.0,0.0,0.0,0.0,0.0,1.0,0.0,0.0,0.0,0.0,0.0,0.0,1.0
1678098017165967383,186,1678098017165815418,map,20.9213866717,2.7123344322,1.42528041913,-0.729627789177,-0.357987248143,0.260330403895,0.521264301873,1.0,0.0,0.0,0.0,0.0,0.0,0.0,1.0,0.0,0.0,0.0,0.0,0.0,0.0,1.0,0.0,0.0,0.0,0.0,0.0,0.0,1.0,0.0,0.0,0.0,0.0,0.0,0.0,1.0,0.0,0.0,0.0,0.0,0.0,0.0,1.0
1678098017199077436,187,1678098017198838567,map,20.9270779814,2.73141557561,1.42128165821,-0.728098089543,-0.364113277877,0.260804129625,0.518917955001,1.0,0.0,0.0,0.0,0.0,0.0,0.0,1.0,0.0,0.0,0.0,0.0,0.0,0.0,1.0,0.0,0.0,0.0,0.0,0.0,0.0,1.0,0.0,0.0,0.0,0.0,0.0,0.0,1.0,0.0,0.0,0.0,0.0,0.0,0.0,1.0
1678098017230285952,188,1678098017230004147,map,20.9223664959,2.73530198782,1.41666257522,-0.727820778618,-0.368949229464,0.261754527389,0.51540076259,1.0,0.0,0.0,0.0,0.0,0.0,0.0,1.0,0.0,0.0,0.0,0.0,0.0,0.0,1.0,0.0,0.0,0.0,0.0,0.0,0.0,1.0,0.0,0.0,0.0,0.0,0.0,0.0,1.0,0.0,0.0,0.0,0.0,0.0,0.0,1.0
1678098017265347677,189,1678098017265186155,map,20.9225222177,2.74496289448,1.42363523129,-0.725597615452,-0.377229158451,0.268780597484,0.508884331447,1.0,0.0,0.0,0.0,0.0,0.0,0.0,1.0,0.0,0.0,0.0,0.0,0.0,0.0,1.0,0.0,0.0,0.0,0.0,0.0,0.0,1.0,0.0,0.0,0.0,0.0,0.0,0.0,1.0,0.0,0.0,0.0,0.0,0.0,0.0,1.0
1678098017298796218,190,1678098017298645821,map,20.9205682512,2.76278228993,1.41480194829,-0.723193229096,-0.386516908846,0.270590731093,0.504357889646,1.0,0.0,0.0,0.0,0.0,0.0,0.0,1.0,0.0,0.0,0.0,0.0,0.0,0.0,1.0,0.0,0.0,0.0,0.0,0.0,0.0,1.0,0.0,0.0,0.0,0.0,0.0,0.0,1.0,0.0,0.0,0.0,0.0,0.0,0.0,1.0
1678098017332650352,191,1678098017332479993,map,20.9136184649,2.76778102966,1.40959417929,-0.721166939248,-0.391004171766,0.270479312442,0.503860003181,1.0,0.0,0.0,0.0,0.0,0.0,0.0,1.0,0.0,0.0,0.0,0.0,0.0,0.0,1.0,0.0,0.0,0.0,0.0,0.0,0.0,1.0,0.0,0.0,0.0,0.0,0.0,0.0,1.0,0.0,0.0,0.0,0.0,0.0,0.0,1.0
1678098017367138129,192,1678098017366977707,map,20.9147421521,2.77729087689,1.41044670213,-0.717603841165,-0.395005960005,0.272385078999,0.504798350099,1.0,0.0,0.0,0.0,0.0,0.0,0.0,1.0,0.0,0.0,0.0,0.0,0.0,0.0,1.0,0.0,0.0,0.0,0.0,0.0,0.0,1.0,0.0,0.0,0.0,0.0,0.0,0.0,1.0,0.0,0.0,0.0,0.0,0.0,0.0,1.0
1678098017402232022,193,1678098017402085555,map,20.9211684964,2.78953970276,1.41194427576,-0.7138852986,-0.402175272467,0.276408421529,0.502216340069,1.0,0.0,0.0,0.0,0.0,0.0,0.0,1.0,0.0,0.0,0.0,0.0,0.0,0.0,1.0,0.0,0.0,0.0,0.0,0.0,0.0,1.0,0.0,0.0,0.0,0.0,0.0,0.0,1.0,0.0,0.0,0.0,0.0,0.0,0.0,1.0
1678098017433867469,194,1678098017433566627,map,20.9124305874,2.79812771745,1.40706745004,-0.709522810503,-0.410765565173,0.280438281602,0.499202774531,1.0,0.0,0.0,0.0,0.0,0.0,0.0,1.0,0.0,0.0,0.0,0.0,0.0,0.0,1.0,0.0,0.0,0.0,0.0,0.0,0.0,1.0,0.0,0.0,0.0,0.0,0.0,0.0,1.0,0.0,0.0,0.0,0.0,0.0,0.0,1.0
1678098017472361409,195,1678098017472184574,map,20.9110549487,2.81002474654,1.40675285444,-0.705557131254,-0.417437075005,0.280405897441,0.499307495429,1.0,0.0,0.0,0.0,0.0,0.0,0.0,1.0,0.0,0.0,0.0,0.0,0.0,0.0,1.0,0.0,0.0,0.0,0.0,0.0,0.0,1.0,0.0,0.0,0.0,0.0,0.0,0.0,1.0,0.0,0.0,0.0,0.0,0.0,0.0,1.0
1678098017505425884,196,1678098017505156495,map,20.91208398,2.82425169189,1.40590753196,-0.702085317813,-0.421842671866,0.28242440262,0.499361008408,1.0,0.0,0.0,0.0,0.0,0.0,0.0,1.0,0.0,0.0,0.0,0.0,0.0,0.0,1.0,0.0,0.0,0.0,0.0,0.0,0.0,1.0,0.0,0.0,0.0,0.0,0.0,0.0,1.0,0.0,0.0,0.0,0.0,0.0,0.0,1.0
1678098017539086998,197,1678098017538704403,map,20.9077866445,2.8346281866,1.40454744598,-0.700417792871,-0.425732087819,0.281722109355,0.498798261227,1.0,0.0,0.0,0.0,0.0,0.0,0.0,1.0,0.0,0.0,0.0,0.0,0.0,0.0,1.0,0.0,0.0,0.0,0.0,0.0,0.0,1.0,0.0,0.0,0.0,0.0,0.0,0.0,1.0,0.0,0.0,0.0,0.0,0.0,0.0,1.0
1678098017565627736,198,1678098017565462496,map,20.9033726102,2.84240188448,1.40065900086,-0.698395116425,-0.429408024897,0.279443690651,0.499764125444,1.0,0.0,0.0,0.0,0.0,0.0,0.0,1.0,0.0,0.0,0.0,0.0,0.0,0.0,1.0,0.0,0.0,0.0,0.0,0.0,0.0,1.0,0.0,0.0,0.0,0.0,0.0,0.0,1.0,0.0,0.0,0.0,0.0,0.0,0.0,1.0
